"","Time","Location","Type.of.bomb","Damage.or.other","lat","lon","district"
"1",1940-09-07 00:08:00,"43 Southwark Park Road, SE16, London, UK","IB","Grocers: 3x2 roof damaged",51.4922483,-0.0621761,"Southwark"
"2",1940-09-07 00:10:00,"49 Southwark Park road, Bermondsey, SE16, London, UK","IB","Bakers: 3x2 roof damaged",51.4926871,-0.0653908,"Southwark"
"3",1940-09-07 00:15:00,"84 Southwark Park Road, SE16, London, UK","IB","front room on 1st floor and contents slightly damaged. 3x2 rood damage",51.4922483,-0.0621761,"Southwark"
"4",1940-09-07 00:18:00,"141 Braidwood Road, Catford SE6, London, UK","IB","10x6 roof damage",51.4408484,-0.0053336,"Lewisham"
"5",1940-09-07 00:20:00,"129 Killearn Road, Catford SE6, London, UK","IB","Front room on 1st floor severely damaged",51.4415073,-0.0054617,"Lewisham"
"6",1940-09-07 00:20:00,"27 Crutchley Road, Downham, London, UK","IB","IB on enclosed ground at rear of premises",51.4367387,0.0052611,"Lewisham"
"7",1940-09-07 00:20:00,"Sandhurst Road School, Catford, SE6, London, UK","IB","HM War Dept. Royal Air Force. Iron and Timer shed, 60x40 used as messroom and store room",51.364587,0.10051,"Bromley"
"8",1940-09-07 00:20:00,"5 Bacon Grove, Bermondsey, SE1, London, UK","IB","3x2 Wood fencing damage",51.4949051,-0.0765862,"Southwark"
"9",1940-09-07 00:21:00,"54 Laleham Road Catford, SE6, London, UK","IB","Middle room damaged",51.4453453,-0.0131228,"Lewisham"
"10",1940-09-07 00:26:00,"5 Chalsey Road, Brokerley, SE6, London, UK","EB","Private house damaged",51.4602075,-0.0304624,"Lewisham"
"11",1940-09-07 00:26:00,"84 Tyrwhitt Road, Brockley, SE4, London, UK","IB","2x1 roof damage",51.4650128,-0.0243932,"Lewisham"
"12",1940-09-07 00:27:00,"20 Jutland Road, Catford SE6, London, UK","EB","Five private houses severely damaged",51.5209926,0.0225304,"Newham"
"13",1940-09-07 00:27:00,"Jutland Road Catford SE6, London, UK","EB","17 private houses damaged",51.513263,-0.089878,"City of London"
"14",1940-09-07 00:27:00,"86 Torridon Road, Catford SE6, London, UK","IB","2x1 roof damage",51.4398089,-0.0018939,"Lewisham"
"15",1940-09-07 00:30:00,"91 Ardgowan Road, Catford SE6, London, UK","Shrapnel","2x1 roof damage",51.4428804,-0.0009128,"Lewisham"
"16",1940-09-07 00:30:00,"96 Tressillain Road, Brockley SE4, London, UK","EB","2 private houses damaged and 14 privates houses damaged",51.4615611,-0.0370938805769408,"Lewisham"
"17",1940-09-07 00:32:00,"Tustin Street, Camberwell, SE16 , London, UK","IB","2x1 roadway damage",51.51668385,-0.119367379230241,"Camden"
"18",1940-09-07 00:32:00,"503 Old Kent Road, SE1, London, UK","EB","back room on 1st floor and contents slightly damaged. 40x20, contents damage",51.4850532,-0.0690983,"Southwark"
"19",1940-09-07 00:32:00,"Avondale Square SE1, London, UK","EB","back room on 1st floor and contents slightly damaged. 40x20, contents damage",51.513263,-0.089878,"City of London"
"20",1940-09-07 00:33:00,"115 Fordel Road, Lewisham SE13, London, UK","IB","IB on enclosed ground at rear of premises",51.44893135,-0.0113494304387585,"Lewisham"
"21",1940-09-07 00:34:00,"108 Fordel  Road, Catford, SE6, London, UK","IB","4x3 wodden fence",51.4434907,-0.005707,"Lewisham"
"22",1940-09-07 00:34:00,"138 Engleheart Road, Catford,SE6, London, UK","EB","All private houses damaged",51.4441242,-0.0170541,"Lewisham"
"23",1940-09-07 00:34:00,"Adelaide Avnue, Brockley SE4, London, UK","EB","St. Cyprian's Church, severley damaged by explosive",51.513263,-0.089878,"City of London"
"24",1940-09-07 00:34:00,"Nos 82-184 inclusive, London, UK","EB","Slightly damaged houses.",NA,NA,NA
"25",1940-09-07 00:34:00,"Ivy Lane, Brockley, SE4, London, UK","EB","Slightly damaged houses.",51.48848,-0.078356,"Southwark"
"26",1940-09-07 00:37:00,"Verney Road, Old Kent Road, SE16, London, UK","IB","back room on 1st floor and contents slightly damaged. 40x20, contents damage",51.4835196,-0.0634406543058161,"Southwark"
"27",1940-09-07 00:38:00,"Verney Road, Old Kent Road, SE16, London, UK","IB","IB burned out street",51.4835196,-0.0634406543058161,"Southwark"
"28",1940-09-07 00:40:00,"127 Minard Road, Catford, SE6, London, UK","IB","Front room on 1st floor severely damaged",51.4457241,0.000557,"Lewisham"
"29",1940-09-07 00:40:00,"124 Southwark Park Road, SE16, London, UK","IB","back room on 1st floor and contents slightly damaged.",51.4922483,-0.0621761,"Southwark"
"30",1940-09-07 00:44:00,"613 Old Kent Road Se15, London, UK","IB","Theatre 4 seats slightly damaged 4x2 roof",51.4833419,-0.0646179,"Southwark"
"31",1940-09-07 00:45:00,"709 Old Kent Road SE1, London, UK","IB","30x20 one floor building.",51.513263,-0.089878,"City of London"
"32",1940-09-07 00:45:00,"348 St. James' Road SE1, London, UK","IB",NA,51.513263,-0.089878,"City of London"
"33",1940-09-07 00:47:00,"Sportsbank Street, Catford, SE6., London, UK","EB","Three private houses damaged and three severely damaged",51.4439872,-0.0118096,"Lewisham"
"34",1940-09-07 00:50:00,"101 Storks Road, Bermondsey, SE16, London, UK","EB","4 private houses severely damaged",51.47805145,-0.0648902849775911,"Southwark"
"35",1940-09-07 01:10:00,"91 Ardgowan Road, Catford SE6, London, UK","IB","landing on 1st floor damaged",51.4428804,-0.0009128,"Lewisham"
"36",1940-09-07 01:14:00,"Chadwick road, Peckham, SE15, London, UK","EB.and.IB","Minor fire damage in all these thoroughfares",51.468021,-0.073743,"Southwark"
"37",1940-09-07 01:14:00,"9 Love Walk, Camberwell, SE5, London, UK",NA,"Minor fire damage in all these thoroughfares",51.4713727,-0.088586605863403,"Southwark"
"38",1940-09-07 01:14:00,"27 Claude Road, Peckham SE15, London, UK",NA,"Minor fire damage in all these thoroughfares",51.5355413,0.0269271152620031,"Newham"
"39",1940-09-07 01:14:00,"33 Claude Road, Peckham, SE15, London, UK",NA,"Minor fire damage in all these thoroughfares",51.53536025,0.026970848649354,"Newham"
"40",1940-09-07 01:14:00,"190 Rye Lane, Peckham, SE15, London, UK",NA,"Minor fire damage in all these thoroughfares",51.46708735,-0.0666401881918208,"Southwark"
"41",1940-09-07 01:14:00,"290 Southampton Way, Peckham, SE15, London, UK",NA,"Minor fire damage in all these thoroughfares",51.4770102,-0.0802303,"Southwark"
"42",1940-09-07 01:14:00,"77 Rye Lane, Peckham, SE15, London, UK",NA,"Minor fire damage in all these thoroughfares",51.47123725,-0.0692106773722592,"Southwark"
"43",1940-09-07 01:14:00,"75 Rye Lane, Peckham, SE15, London, UK",NA,"Minor fire damage in all these thoroughfares",51.471275,-0.0692406500000052,"Southwark"
"44",1940-09-07 01:14:00,"66 East Surrey Grove, Peckham SE15, London, UK",NA,"Minor fire damage in all these thoroughfares",51.4783421,-0.0753117,"Southwark"
"45",1940-09-07 01:14:00,"91 Coleman Road, Camberwell, SE5, London, UK",NA,"Minor fire damage in all these thoroughfares",51.4906368,0.1464009,"Bexley"
"46",1940-09-07 01:52:00,"58 Brownhill Road, Catford, London, UK",NA,"IB (unexploded) on enclosed ground at rear of premises",51.4456825,-0.0156626,"Lewisham"
"47",1940-09-07 02:00:00,"7 Nunhead Green, Camberwell, SE15, London, UK","EB","house of 5 rooms and content severely damaged",51.465096,-0.0593089,"Southwark"
"48",1940-09-07 02:16:00,"727, Old Kent Road, Camberwell, SE15, London, UK","IB","shop (bakery) and house of 6 rooms back room, ceiling and roof damaged.",51.4810956,-0.0603219,"Southwark"
"49",1940-09-07 02:16:00,"52 Brownhill Road , London, UK",NA,"Falling Shrapnel",51.4457213,-0.015952,"Lewisham"
"50",1940-09-07 02:20:00,"84 Tressillain Road, Brockley SE4, London, UK",NA,"Falling Shrapnel",51.47053745,-0.0416845729513061,"Lewisham"
"51",1940-09-07 02:23:00,"83 Grange Road, Bermondsey, SE1, London, UK","IB","Grocer: front room 1st floor and contents slightly damaged. 4x2 roof damaged",51.51011055,-0.299882608462282,"Ealing"
"52",1940-09-07 02:25:00,"52 Southwark Park Road, SE16, London, UK","IB","Furniture dealer 30x20 building and contents damaged",51.4922483,-0.0621761,"Southwark"
"53",1940-09-07 02:49:00,"Prince Edward Road, E9, London, UK","EB","Roadway and 3 private houses damaged",51.5442637,-0.0251806,"Hackney"
"54",1940-09-07 03:15:00,"12, Jewell Street, Mile End. E1, London, UK","IB","6 x 4ft of roof damage.",51.525053,-0.040442,"Tower Hamlets"
"55",1940-09-07 03:45:00,"12 Harford St, Stepney E1, London, UK","IB","a building of 3 floors about 80 x 50ft and contents severely damaged",51.5229641,-0.0399405,"Tower Hamlets"
"56",1940-09-07 05:15:00,"Hazelbank Road, Catford SE6, London, UK",NA,"2x2 roadway damage",51.513263,-0.089878,"City of London"
"57",1940-09-07 05:15:00,"Plough Way, SE16, London, UK","IB","Timber importers, 200x150 buildings, canteen, workshops etc, dmaged,",51.491796,-0.04489,"Southwark"
"58",1940-09-07 05:20:00,"Plough Way, SE16, London, UK","EB","Buildings damaged",51.491796,-0.04489,"Southwark"
"59",1940-09-07 05:57:00,"28 Ringstead Road, Catford, SE6, London, UK",NA,"2x2 roadway damage",51.446479,-0.0167421970837491,"Lewisham"
"60",1940-09-07 07:49:00,"786 Old Kent Road, Camberwell, SE15, London, UK","IB","shop (tobacconist) and house of 6 rooms back room, ceiling and roof damaged.",51.4797844,-0.0573263,"Southwark"
"61",1940-09-07 08:00:00,"7, Devonshire Grove, SE15, London, UK","IB","maritime engineers building of two floors 80x60 severely damaged.",51.4810503,-0.0592771,"Southwark"
"62",1940-09-07 08:00:00,"Bromley Road, Catford, SE6, London, UK","IB","IB on enclosed ground",51.4065912,-0.0006685,"Bromley"
"63",1940-09-07 08:02:00,"42 Brown Hill Road, Catford, SE6, London, UK",NA,"2x2 roadway damage",51.513263,-0.089878,"City of London"
"64",1940-09-07 10:04:00,"39 Loampit Vale, Lewisham SE13, London, UK",NA,"unexploded bomb on enclosed ground at rear of premises",51.4645495,-0.0142095,"Lewisham"
"65",1940-09-07 10:04:00,"19 Vivian Roan, Bethnal Green E2, London, UK","IB","4x3 ft of wooden fencing damaged in yard",51.526864,-0.058509,"Tower Hamlets"
"66",1940-09-07 10:42:00,"Milton Court Road, New Cross, Se14, London, UK","IB","IB burned out in street",51.480914,-0.036679,"Lewisham"
"67",1940-09-07 12:00:00,"39 Gilmore Road, Lewisham SE13, London, UK",NA,"unexplodedbomb on enclosed ground at rear of premises",51.46042295,-0.00659353744131003,"Lewisham"
"68",1940-09-07 12:45:00,"3 Drivers Buildings, Mile End Rd E1, London, UK","IB","House of 4 rooms, top floor and contents damaged. Part of roof off",51.509648,-0.099076,NA
"69",1940-09-07 13:34:00,"110, Skidmore Street, London, UK","IB","Front room on first floor and contents damaged. 3 x 2ft of roof breakage",51.513263,-0.089878,"City of London"
"70",1940-09-07 14:55:00,"Royal Arsenal, Woolwich, SE18, London, UK","EB.and.IB","(Owned by H.M War Department) E.50 A building of 2 floors about 300x200 used as workrooms,, machine rooms office and store damaged by explosion",51.499992,0.028734,"Newham"
"71",1940-09-07 14:55:00,"Royal Arsenal, Woolwich, SE18, London, UK","EB.and.IB","E.51 Two floor building 200x80, where insturments were stored severely damaged",51.499992,0.028734,"Newham"
"72",1940-09-07 14:55:00,"Royal Arsenal, Woolwich, SE18, London, UK","EB.and.IB","E.2, 3, 6 and 7, A over a two acre factory space was severely damaged, demolished",51.499992,0.028734,"Newham"
"73",1940-09-07 14:55:00,"Royal Arsenal, Woolwich, SE18, London, UK","EB.and.IB","E.40 a two floor storage building 120x80 severely damaged",51.499992,0.028734,"Newham"
"74",1940-09-07 14:55:00,"Royal Arsenal, Woolwich, SE18, London, UK","EB.and.IB","D.94, 95 and 96 A range of buildings of one and two floors used as turney, forges and store, severely damaged.",51.499992,0.028734,"Newham"
"75",1940-09-07 14:55:00,"Royal Arsenal, Woolwich, SE18, London, UK","EB.and.IB","E.135 and 136, 400x400 buildings used as laboratories and store severely damaged",51.499992,0.028734,"Newham"
"76",1940-09-07 14:55:00,"Royal Arsenal, Woolwich, SE18, London, UK","EB.and.IB","E.151 to 164A, 14 buildings each about 450x60 used as stores, large amount of stock on open ground covering about a quarter square mile, severely damaged",51.499992,0.028734,"Newham"
"77",1940-09-07 14:55:00,"Royal Arsenal, Woolwich, SE18, London, UK","EB.and.IB","24 buiidings all slightly damaged",51.499992,0.028734,"Newham"
"78",1940-09-07 14:55:00,"Royal Arsenal, Woolwich, SE18, London, UK","EB.and.IB","E.2, a range of buildings damaged covering 250x100. Area used as explosive works and stores, severely damaged.",51.499992,0.028734,"Newham"
"79",1940-09-07 14:55:00,"Royal Arsenal, Woolwich, SE18, London, UK","EB.and.IB","A.75 A building of 4 floors and basement 250 x200 used as offices and stores amaged",51.499992,0.028734,"Newham"
"80",1940-09-07 14:55:00,"Royal Arsenal, Woolwich, SE18, London, UK","EB.and.IB","E.31a  two floor 150x60 storage building damaged",51.499992,0.028734,"Newham"
"81",1940-09-07 14:55:00,"Royal Arsenal, Woolwich, SE18, London, UK","EB.and.IB","Total casualties, 49 males killed, 67 males injured.",51.499992,0.028734,"Newham"
"82",1940-09-07 16:14:00,"Bolsoms Ltd.(Furnishing Co.) Lewisham High Street, SE13, London, UK","IB","Bolsom Bro's, Furniture shop: 100x40 two floor building, used as showrooms severley damaged",51.4512271,-0.0168649,"Lewisham"
"83",1940-09-07 16:20:00,"Chiesmans Depository, Lewisham High Street, SE13, London, UK","IB","universal providers: 100x30 three floor building severely damaged",51.4512271,-0.0168649,"Lewisham"
"84",1940-09-07 16:40:00,"Newby Place, Poplar E14, London, UK","IB","Poplar Public Hall. Building of 2 floors 80x60 . 5/6 Severely damaged, most of roof off.",51.5109421,-0.0123666,"Tower Hamlets"
"85",1940-09-07 16:57:00,"Old Tram Yard, Lakedale Road, Plumstead, SE18, London, UK","EB","120x100 of garage, stables, an stores and contents, including two cars damaged. Two horses killed. Range of buildings and one floor 350x70  contents and stored damaged.",51.485125,0.091106,"Greenwich"
"86",1940-09-07 16:57:00,"Old Tram Yard, Lakedale Road, Plumstead, Se18, London, UK","EB","A surface air raid shelter of 40x20 damaged",51.485125,0.091106,"Greenwich"
"87",1940-09-07 16:57:00,"Lakedale Road and plumstead High Street SE18, London, UK","EB","Two people killed, several injured. Buildingd damaged.",NA,NA,NA
"88",1940-09-07 17:03:00,"70 Croft Street Deptford, SE8, London, UK","IB","back rooms 1st floor damaged",51.490719,-0.041201,"Lewisham"
"89",1940-09-07 17:03:00,"41 Windmill Lane, Deptford, Se8, London, UK","EB","Dairy shop and 15 private houses damaged",51.5455596,0.0020207,"Newham"
"90",1940-09-07 17:05:00,"61 Basildon Road Abbey Wood, SE2, London, UK","EB","2 private houses damaged",51.4860733,0.1071688,"Greenwich"
"91",1940-09-07 17:05:00,"35 Basildon Road, Abbey Wood, SE2, London, UK","EB","41 private houses damaged.",51.4860733,0.1071688,"Greenwich"
"92",1940-09-07 17:05:00,"Basildon Road, Abbey Wood, SE2, London, UK","EB","South Met Gas Company, 18"" gas main, 20 ft of electric cables, 30x20 roadway damage.",51.485757,0.107042,"Greenwich"
"93",1940-09-07 17:07:00,"Cordelia Street, Poplar E14, London, UK","IB","Number of IB burned out on road",51.5136991,-0.01804,"Tower Hamlets"
"94",1940-09-07 17:07:00,"13 Cordelia Street, Poplar, E14, London, UK","IB","House of 6 rooms and contents severely damaged",51.5136975,-0.0193196,"Tower Hamlets"
"95",1940-09-07 17:12:00,"Poplar High Street, Poplar, E14, London, UK","EB","St. Mathias Church. 30x20 paveing damaged. 40 feet of brink and some iron railings damaged",51.5088801,-0.0135081,"Tower Hamlets"
"96",1940-09-07 17:12:00,"The Vicarage, Poplar, E14, London, UK","EB","Damaged by explosion",51.54028335,-0.0589264469122657,"Hackney"
"97",1940-09-07 17:15:00,"Colin Street, Bromley-By-Bow E3, London, UK","IB","12 private houses of about 6 rooms and contents severely damaged",51.513263,-0.089878,"City of London"
"98",1940-09-07 17:15:00,"Empson St, Bromley-By-Bow E3, London, UK","IB","Berger Hall Central Church and Medical Mission back building of 1 and 2 floors about 70 x 50ft (used as Mission Hall) and contents severely damaged. Collapsed and fallen down",51.5221616,-0.0131847,"Tower Hamlets"
"99",1940-09-07 17:15:00,"Marner St School, Marner Street E3, London, UK","IB","A building of 3 floors about 150 x 80 feet about 2/3 of contents severely damaged. Most part of roof off. doors and window glass damaged by breakage",51.509648,-0.099076,NA
"100",1940-09-07 17:15:00,"St. Leonards Wharf, Bromley E3, London, UK","IB","Unoccupied Sun Flour Mills Co. LTD. About 30 x 20 ft of deck planking damaged. Building of 3 floors about 80 x 60 ft( used as grain store) about 3/4 severely damaged. Most part of roof off.",51.518572,-0.010074,"Tower Hamlets"
"101",1940-09-07 17:15:00,"242 Brunswick Rd, Poplar, E14, London, UK","IB","Wine and Spirit Merchants. Building of 3 floors about 80x 40ft used as bottling stores. 4/5 of 3rd floor and contents severely damaged. Most part of roof off.",51.63122445,-0.149851287137655,"Barnet"
"102",1940-09-07 17:15:00,"242, Brunswick Rd, Poplar, E14, London, UK","IB","One half of 2nd floor slightly damaged by water, window glass damaged by breakage.",51.63122445,-0.149851287137655,"Barnet"
"103",1940-09-07 17:15:00,"240 Brunswick Rd, Poplar, E14, London, UK","IB","Wine Growers- Building of 3 floors about 300x 60ft ( used as wine stores) about 2/3 of top floor and contents severely damaged. Most part of roof off. Contents under slightly by water.",51.6311802,-0.14981092761902,"Barnet"
"104",1940-09-07 17:15:00,"240 Brunswick Rd, Poplar, E14, London, UK","IB","A building of 4 floors about 100 x 60 ft, fourth floor severely damaged. Most part of roof off.",51.6311802,-0.14981092761902,"Barnet"
"105",1940-09-07 17:15:00,"Empson St Bromley E3, London, UK","IB","About 200 tons of electric power cable and a quantity of electric apparatus damaged.",51.5221616,-0.0131847,"Tower Hamlets"
"106",1940-09-07 17:15:00,"Colin Street, Bromley-By-Bow, E3, London, UK","IB","Timber yard of 15 acres with 200 stacks of timber, 2dumb barges, 2 motor lorries, a tractor, 4 cars, and a range of 1-4 floor buildings, (used as workspace, sawmills, offices, canteens, garages and stores). About 5/6 severely damaged and part roof off.",51.513263,-0.089878,"City of London"
"107",1940-09-07 17:23:00,"Friendsliy Place, Greenwhich SE10, London, UK","EB","A. Gilbey & Sons, printing and ink manufacturers. Workshopds office and storage damaged",51.504582,-0.021587,"Tower Hamlets"
"108",1940-09-07 17:24:00,"26, Bruce Road, Poplar, Greater London E3 3, London, UK","IB","House of 8 rooms, first floor and contents slightly damaged. Contents under slightly by water, doors and window glass by breakage.",51.5268502,-0.0147961,"Tower Hamlets"
"109",1940-09-07 17:24:00,"141 Albert Road, North Woolwich E16, London, UK","IB","Coal Dealers. Four shops and houses of 6 rooms each and contents, severely damaged, and roofs off",51.49990165,0.0628759726215301,"Newham"
"110",1940-09-07 17:24:00,"143 Albert Road, North Woolwich E16, London, UK","IB","Coal Dealers. Four shops and houses of 6 rooms each and contents, severely damaged, and roofs off",51.49990165,0.0628759726215301,"Newham"
"111",1940-09-07 17:24:00,"145 Albert Road, North Woolwich E16, London, UK","IB","Coal Dealers. Four shops and houses of 6 rooms each and contents, severely damaged, and roofs off",51.5000059,0.0623362,"Newham"
"112",1940-09-07 17:24:00,"147 Albert Road, North Woolwich E16, London, UK","IB","Coal Dealers. Four shops and houses of 6 rooms each and contents, severely damaged, and roofs off",51.5000015,0.0623881,"Newham"
"113",1940-09-07 17:30:00,"9 Sevenoaks Road Brokerley SE4, London, UK","IB","IB burned out in garden",51.513263,-0.089878,"City of London"
"114",1940-09-07 17:30:00,"11 Sevenoaks Road, Brockley, SE4, London, UK","IB","Front room on 1st floor severely damaged",51.453017,-0.0374166507340226,"Lewisham"
"115",1940-09-07 17:30:00,"Bruce RD, Bromley E3, London, UK","IB","IB bomb burned out on road",51.5268502,-0.0147961,"Tower Hamlets"
"116",1940-09-07 17:31:00,"459 Brockley Road, Brocklet SE4, London, UK","IB","Shop and house of 8 rooms  damaged",51.4537564,-0.0380405,"Lewisham"
"117",1940-09-07 17:31:00,"Bruce RD, Bromley E3, London, UK","IB","IB bomb burned out on road",51.5268502,-0.0147961,"Tower Hamlets"
"118",1940-09-07 17:31:00,"46 Bruce Rd, Bromley E3, London, UK","IB","House of 8 rooms, 2 back rooms on first floor and contents slightly damaged.",51.526941,-0.0150222152934729,"Tower Hamlets"
"119",1940-09-07 17:33:00,"142 Foxberry Road, Brockley, SE4, London, UK","IB","Back room on 1st floor and contents damaged",51.4613516,-0.0360347,"Lewisham"
"120",1940-09-07 17:34:00,"75 ComerfordRoad Brockley se4, London, UK","IB","IB on enclosed ground at rear of premises",51.513263,-0.089878,"City of London"
"121",1940-09-07 17:35:00,"Royal Arsenal, Woolwich, SE18, London, UK","EB.and.IB","Many buildings in there sections damaged by explosion and fire",51.499992,0.028734,"Newham"
"122",1940-09-07 17:35:00,"Creek Bridge, Creek Road, Greenwich SE10, London, UK","EB","Owned by London County Council10x6 of carriage way",51.4809748,-0.0209403,"Greenwich"
"123",1940-09-07 17:35:00,"Three Mill Lane, Greater London E3 3, London, UK","IB","A number of IB bombs burned out on road",51.5269713,-0.0106455,"Tower Hamlets"
"124",1940-09-07 17:36:00,"Edward Street SE14, London, UK","COB","4x6 roadway and paving damage",51.4804416,-0.031305,"Lewisham"
"125",1940-09-07 17:36:00,"35 Colwick Street Deptford SE8, London, UK","EB","front room on 1st floor damaged.",51.513263,-0.089878,"City of London"
"126",1940-09-07 17:36:00,"Deptford Park, Evelyn Street, Deptford, SE8, London, UK","IB","Many IB burnt out in park",51.4900316,-0.0421094,"Lewisham"
"127",1940-09-07 17:40:00,"Church hill Woolwich, SE18, London, UK","IB","Minor fire damage in all these thoroughfares",51.493177,0.057874,"Greenwich"
"128",1940-09-07 17:40:00,"Kingsman Street, Woolwich, SE18, London, UK","IB","Minor fire damage in all these thoroughfares",51.490861,0.057876,"Greenwich"
"129",1940-09-07 17:40:00,"Sunsbury Street, Woolwich SE18, London, UK","IB","Minor fire damage in all these thoroughfares",51.522256,0.0588030830188647,"Newham"
"130",1940-09-07 17:40:00,"Glenalvon Street, Woolwich SE18, London, UK","IB","Minor fire damage in all these thoroughfares",51.4690905,-0.0221846,"Lewisham"
"131",1940-09-07 17:40:00,"Woolwich Church Street, Woolwich SE18, London, UK","IB","Minor fire damage in all these thoroughfares",51.493529,0.058969,"Greenwich"
"132",1940-09-07 17:40:00,"Artillery Place, Wollwich SE18, London, UK","IB","Minor fire damage in all these thoroughfares",51.499803,0.035472,"Newham"
"133",1940-09-07 17:40:00,"Powis Street, Woolwich SE18, London, UK","IB","Minor fire damage in all these thoroughfares",51.491928,0.064748,"Greenwich"
"134",1940-09-07 17:40:00,"Chapel Hill, Woolwich SE18, London, UK","IB","Minor fire damage in all these thoroughfares",51.490938,0.064657,"Greenwich"
"135",1940-09-07 17:40:00,"Woolwich high Street, Woolwich SE18, London, UK","IB","Minor fire damage in all these thoroughfares",51.493851,0.065846,"Greenwich"
"136",1940-09-07 17:40:00,"John Wilson Street, Woolwich SE18, London, UK","IB","Minor fire damage in all these thoroughfares",51.487759,0.063095,"Greenwich"
"137",1940-09-07 17:40:00,"Plumstead Road, Woolwich SE18, London, UK","IB","Minor fire damage in all these thoroughfares",51.491073,0.0804436,"Greenwich"
"138",1940-09-07 17:40:00,"Paradise Place Woolwich SE18, London, UK","IB","Minor fire damage in all these thoroughfares",51.489484,0.050086,"Greenwich"
"139",1940-09-07 17:41:00,"14, Three Mill Lane, Greater London, E3, London, UK","IB","House of 8 rooms, front and middle room on first floor and contents damaged.",51.526895,-0.00958,"Tower Hamlets"
"140",1940-09-07 17:42:00,"1 Reeves Road, Bow, E3, London, UK","IB","House of 4 rooms, severely damaged",51.5240135,-0.0155665,"Tower Hamlets"
"141",1940-09-07 17:43:00,"Ebenezer Place, Chrisp Street, Poplar, E14, London, UK","EB","30x20 roadway and paving damaged. Electric power cables destroyed",51.5146181,-0.0146965,"Tower Hamlets"
"142",1940-09-07 17:43:00,"120 Chrisp Street, Poplar, E14, London, UK","EB","Shop and house of 7 rooms  and contents severely damaged",51.5147044,-0.0145656,"Tower Hamlets"
"143",1940-09-07 17:44:00,"Wotton Way, Deptford, SE8, London, UK","IB","IB burned out in street",51.513263,-0.089878,"City of London"
"144",1940-09-07 17:45:00,"18 Sevenoaks Road, Crofton park, SE4, London, UK","IB","Front room on 1st floor severely damaged",51.4525444,-0.0374563,"Lewisham"
"145",1940-09-07 17:45:00,"8 Sevenoaks Road Crofton Park, SE4, London, UK","IB","Front room on 1st floor severely damaged",51.45267185,-0.0378372107115657,"Lewisham"
"146",1940-09-07 17:45:00,"112 Foxberry Road, Brockley, London, UK","IB","front room above shop and contents damaged",51.4613516,-0.0360347,"Lewisham"
"147",1940-09-07 17:45:00,"Reeves Road, Bow, E3, London, UK","IB","Number of IB burned out on road",51.5233558,-0.0156874,"Tower Hamlets"
"148",1940-09-07 17:45:00,"4 Pier Road, North Woolwich, E16 , London, UK","IB","Front room on 1st floor and contents damaged.",51.5004451,0.0633357,"Newham"
"149",1940-09-07 17:46:00,"Royal Dockyard, Woolwich, London, UK","EB.and.IB","HM War Dept. Block 47- A building og three floors about 250 x 80 used as store and contents damaged",51.4913623,0.0696068563413751,"Greenwich"
"150",1940-09-07 17:46:00,"Royal Dockyard, Woolwich, London, UK","EB.and.IB","Block 49- Abuilding of 2 floors 250x60 storage damaged.",51.4913623,0.0696068563413751,"Greenwich"
"151",1940-09-07 17:46:00,"Royal Dockyard, Woolwich, London, UK","EB.and.IB","Block 52- 80x50 two floor building, used as acid store severely damaged",51.4913623,0.0696068563413751,"Greenwich"
"152",1940-09-07 17:46:00,"Royal Dockyard, Woolwich, London, UK","EB.and.IB","Block 67 three floor 150x60 roof and contents damaged",51.4913623,0.0696068563413751,"Greenwich"
"153",1940-09-07 17:46:00,"Royal Dockyard, Woolwich, London, UK","EB.and.IB","Block 221, 50x40 office and store damaged. Roof off",51.4913623,0.0696068563413751,"Greenwich"
"154",1940-09-07 17:46:00,"Royal Dockyard, Woolwich, London, UK","EB.and.IB","Block 149 50x40 used as dwelling and store severely damaged and part of roof off.",51.4913623,0.0696068563413751,"Greenwich"
"155",1940-09-07 17:46:00,"Royal Dockyard, Woolwich, London, UK","EB.and.IB","Two timber shed buildings  each 20x10, two railway trucks and contents damaged",51.4913623,0.0696068563413751,"Greenwich"
"156",1940-09-07 17:46:00,"Royal Dockyard, Woolwich, London, UK","EB.and.IB","Bloock 225- 80x50 one floor building , used as workrooms and store",51.4913623,0.0696068563413751,"Greenwich"
"157",1940-09-07 17:46:00,"Royal Dockyard, Woolwich, London, UK","EB.and.IB","Motor lorry damaged by fire",51.4913623,0.0696068563413751,"Greenwich"
"158",1940-09-07 17:46:00,"Commonwealth Buildings, Woolwich Curch Street, SE18, London, UK","EB.and.IB","Two floor building 100x 40, used as work rooms, top floor and contents damaged",51.492011,0.070431,"Greenwich"
"159",1940-09-07 17:46:00,"Commonwealth Buildings, Woolwich Curch Street, SE18, London, UK","EB.and.IB","One floor building 60x40 ft used as workroom office and store",51.492011,0.070431,"Greenwich"
"160",1940-09-07 17:46:00,"Commonwealth Buildings, Woolwich Curch Street, SE18, London, UK","EB.and.IB","A house of 7 rooms, top floor and contents severely damaged art of roof off",51.492011,0.070431,"Greenwich"
"161",1940-09-07 17:46:00,"Commonwealth Buildings, Woolwich Curch Street, SE18, London, UK","EB.and.IB","Storage building of one floor 60x20",51.492011,0.070431,"Greenwich"
"162",1940-09-07 17:47:00,"Bowater Road, Woolwich SE18, London, UK","EB.and.IB","Owned by Siemens Bros. & Co., Ltd. Electrical cable manufacturers""L"" block- 6 floors and basement 80x40, workrooms offices and store, 3 upper foors cona contents damaged. Three other buildings damaged.",51.494191,0.042463,"Greenwich"
"163",1940-09-07 17:50:00,"Samuel Street, Woolwich SE18. Nos.148-154 inclusive, London, UK","IB","4 private houses and contents damaged.",51.4917702,0.0525492,"Greenwich"
"164",1940-09-07 17:50:00,"Samuel Street, Woolwich SE18, London, UK","EB","16 private houses damaged",51.490349,0.051529,"Greenwich"
"165",1940-09-07 17:50:00,"Red Barracks, Francis Street, Woolwich SE18, London, UK","EB","HM War Dept. Military College of Science Slightly damaged",51.5469233,0.004706,"Newham"
"166",1940-09-07 17:50:00,"13 Walerand Road Lewisham, SE13, London, UK","EB","South Met Gas Company, three houses, gas pipes and gas destroyed",51.4664081,-0.0089028,"Lewisham"
"167",1940-09-07 17:50:00,"Honor Oak Road, Forest Hill SE23, London, UK","EB","Owned by Lewisham BC 6x3 Roadway damage",51.444383,-0.055281,"Lewisham"
"168",1940-09-07 17:51:00,"Devons Road, Bromley, E3, London, UK","IB","St. Andew's Hospital. 100x50 three floor building, roofing and joisting damaged by fire. 100x22 three floor building roofing and joisting damaged. 50x20 one floor building damaged. 40x20 plumbers workshop . 1/6 contents damaged. A number of IB burned out in hospital grounds.",51.5227719,-0.0184907,"Tower Hamlets"
"169",1940-09-07 17:51:00,"Empson Street, Bromley, E3, London, UK","IB","Berger Hall Central Church and Medical Mission 120x80 lecture hall and club rooms, contents severely damaged.",51.5221616,-0.0131847,"Tower Hamlets"
"170",1940-09-07 17:51:00,"Albert Road, North Wollwich, E16, London, UK","IB","12x6 wooden fencing and railway cutting away damaged",51.513263,-0.089878,"City of London"
"171",1940-09-07 17:52:00,"Brewery Wharf, Creek Road, Greenwich, SE10, London, UK","EB","Headley's Wharf, Ltd.20x15 of quayside damaged by explosion",51.4809748,-0.0209403,"Greenwich"
"172",1940-09-07 17:52:00,"Hyde Vale Greenwich S10, London, UK","Crashed.Aircraft","HM War Dept. Royal Air Force. An aeroplane damaged by fire by explosion and breakage",51.4759525,-0.0094975,"Greenwich"
"173",1940-09-07 17:52:00,"Catherine Grove, Greenwich SE10, London, UK","IB","London Auxiliary Fire Service: Medium trailer pump of content damaged. Tar and brickwork damaged in yard",51.474466,-0.01876,"Greenwich"
"174",1940-09-07 17:52:00,"70 Crooms Hill, Greenwich SE10, London, UK","IB","Ladies School. Ursuline Convent 10x4 roof damage",51.4767154,-0.0057761,"Greenwich"
"175",1940-09-07 17:52:00,"West Ferry Road, Millwall, E14, London, UK","EB.and.IB","Thames Oil Wharft, Ltd. 1000, 45 gallonmineral oil drums and three oil tanks (40 tons each) and two, 2 foor buildings, contents and machinery all damaged.",51.43001455,-0.323323672685084,"Richmond upon Thames"
"176",1940-09-07 17:52:00,"West Ferry Road, Millwall, E14, London, UK","EB.and.IB","Timber storage. 2 Tarpaulins burned and a 20x 10 stack or timberand an iron shed all damaged",51.43001455,-0.323323672685084,"Richmond upon Thames"
"177",1940-09-07 17:53:00,"457 Brockley Road, Brockley SE4, London, UK","IB","Back room on ground floor and contents damaged",51.4600089,-0.0339848,"Lewisham"
"178",1940-09-07 17:53:00,"Glebe Terrace, Bow E3, London, UK","IB","Front room on first floor and contents slightly damaged. Roof by breakage",51.513263,-0.089878,"City of London"
"179",1940-09-07 17:54:00,"Conduit House, Hyde Vale, Greenwich SE10, London, UK","IB","15x5 roof damage to house that had been let out as flats",51.4759525,-0.0094975,"Greenwich"
"180",1940-09-07 17:54:00,"Bexley Road Eltham, SE9, London, UK","IB","10x6 GRASS burned",51.4508399,0.0637674,"Greenwich"
"181",1940-09-07 17:54:00,"599 Manchester Road, Cubitt Town, E14, London, UK","IB","Private house of 9 room s damaged by fire",51.50047065,-0.0093683885141381,"Tower Hamlets"
"182",1940-09-07 17:55:00,"47 Lewisham Road SE10, London, UK","EB","Hairdressers, Severley damaged",51.4713332,-0.0147997,"Greenwich"
"183",1940-09-07 17:55:00,"Hollyhedge House, Blackheath, SE3, London, UK","IB","HM War Dept 2x1 damage",51.509648,-0.099076,NA
"184",1940-09-07 17:55:00,"117 Sedgeway, Catford, SE6, London, UK","EB","Private house of 6 rooms damaged",51.4401649,0.0072464,"Lewisham"
"185",1940-09-07 17:55:00,"201 Boundfield Road, Downham, London, UK","EB","Private house of 6 rooms damaged",51.4341662,0.0007198,"Lewisham"
"186",1940-09-07 17:55:00,"30 Brandham Road, Lee Se12, London, UK","IB","roof damaged by fire",51.45709725,0.00712514493385201,"Lewisham"
"187",1940-09-07 17:55:00,"Uplands Brandram, Road, Lee SE12, London, UK","IB","roof damaged by fire",51.4586598,-0.0111585920068,"Lewisham"
"188",1940-09-07 17:55:00,"1 Elliot park, Blackheath, SE3, London, UK","EB.and.IB","four houses, each with 12 rooms slightly damaged",51.513263,-0.089878,"City of London"
"189",1940-09-07 17:55:00,"Brandham Road, Lee, SE12, London, UK",NA,"top floor contents damaged",51.4096366,-0.0431569,"Bromley"
"190",1940-09-07 17:55:00,"25 Dowanhill Road, Catford, Se6, London, UK",NA,"Unexploded bomb at rear of premises, not yet detonated",51.4399296,-0.0019629,"Lewisham"
"191",1940-09-07 17:55:00,"Alms House, Brandham, Lee, SE12, London, UK",NA,"two unexploded bombs",51.481384,-0.003911,"Greenwich"
"192",1940-09-07 17:55:00,"Tunnel Avenue, Greenwich, SE10, London, UK","EB","building of one room and tro floors severley damaged",51.489445,0.008867,"Greenwich"
"193",1940-09-07 17:55:00,"34 Grantley Street, Mile End E1, London, UK","IB","House of 6 rooms, first floor and contents severely damaged. Part of roof off.",51.5256236,-0.0457464,"Tower Hamlets"
"194",1940-09-07 17:57:00,"St. Catherine's Vicarage, Pepys's Road, New Cross, SE14, London, UK","IB","house of 20 rooms, most of roof off, contents slightly damaged.",51.548132,-0.073628,"Hackney"
"195",1940-09-07 17:57:00,"27, Elsdale Street, Hackney, E9, London, UK","IB","Back room on second floor and contents damaged. Roof damaged by breakage",51.5431308,-0.0490219,"Hackney"
"196",1940-09-07 17:57:00,"40 Harford Street, Stepney, E1, London, UK","IB","House of 5 rooms and contents severely damaged",51.5222915,-0.0393976,"Tower Hamlets"
"197",1940-09-07 17:57:00,"Garnett Street Stepney E1, London, UK",NA,"Minor fire and explosion damage",51.513263,-0.089878,"City of London"
"198",1940-09-07 17:57:00,"North Woolwich Road E16, London, UK","IB","Victualler Barge House60x40 two floor building, used as victuallers and contents damaged.",51.5028049,0.0388043,"Newham"
"199",1940-09-07 17:58:00,"Gervase Street, Camberwell, SE16, London, UK","IB","2x1 roadway damage",51.479357,-0.058363,"Southwark"
"200",1940-09-07 17:58:00,"Crofton Park Railway Station, Brockley, SE4, London, UK","IB","(Southern Railway) IB on Track",51.45491715,-0.0364719790345826,"Lewisham"
"201",1940-09-07 17:58:00,"100 Skidmore Street, Stepney E1, London, UK","IB","A timber shed building about 20 x 10ft (used as a store) and contents damaged",51.516152,-0.046262,"Tower Hamlets"
"202",1940-09-07 17:59:00,"25 Goodwood Road, Newcross, SE14, London, UK","IB","Aspinalls. Paint Manufacturers. 20x10 roofing and joisting damaged",51.475276,-0.0390575,"Lewisham"
"203",1940-09-07 17:59:00,"Surrey Commercial Docks, SE16, London, UK","IB","Port of London, timber yards, warehouses, offices and stores, covering 120 acres, including 10 shops and small craft of about 30 000 tons gross. 4/5 of content damaged.  Roofs off. Two firemen killed and four injured",51.499858,-0.033176,"Southwark"
"204",1940-09-07 17:59:00,"250 Silver Walk, Rotherhithe Street, Se16, London, UK","IB","block of mofel dwellings damaged by explosion.",51.5053227,-0.0450963,"Southwark"
"205",1940-09-07 17:59:00,"660 Rotherhithe Street, Se16, London, UK","IB","4 floor buildings, covering 1/2 mile, severely damaged",51.5019456,-0.0333414,"Southwark"
"206",1940-09-07 17:59:00,"Milbourne St, Hackney E9, London, UK","IB","Slipper manufacturer- building of 1 and 2 floors about 80 x 60 feet, used as workrooms, offices and stores severely damaged. Most part of roof off and door and window glass broken",51.513263,-0.089878,"City of London"
"207",1940-09-07 17:59:00,"Arnold Road, Bow E3, London, UK","IB","Back room on first floor and contents slightly damaged. Roof by breakage",51.5897628,-0.0728823,"Haringey"
"208",1940-09-07 17:59:00,"West Ferry Road, Millwall, E14, London, UK","EB","20 ft of railway track and a building of one floor80x40 damaged",51.43001455,-0.323323672685084,"Richmond upon Thames"
"209",1940-09-07 18:00:00,"8 Lanbury Road, Camberwell SE15, London, UK","IB","front room of 1st floor damaged",51.4601793,-0.0459739,"Southwark"
"210",1940-09-07 18:00:00,"Thornham Street Greenwich SE10, London, UK","EB","20 private houses damaged",51.4806,-0.01478,"Greenwich"
"211",1940-09-07 18:00:00,"46-48 Comerford Road, 41-53 Comerford Road, Brockley, SE4, London, UK","EB","two buildings damged",NA,NA,NA
"212",1940-09-07 18:00:00,"12 Buckthorne Road, Corfton Park SE4, London, UK","IB","First floor damaged",51.4525744,-0.0410113,"Lewisham"
"213",1940-09-07 18:00:00,"Morden Wharf Road, Greenwich SE10, London, UK","EB.and.IB","Firmin & Co. Sack and bag manufactures. Range of buildings  200x180 used as workshops severely damaged",51.493819,0.00443,"Greenwich"
"214",1940-09-07 18:00:00,"Tunnel Avenue, Greenwich, SE10, London, UK","EB.and.IB","Henry Froud, Haulage contractors, 120x40 severely damged",51.489445,0.008867,"Greenwich"
"215",1940-09-07 18:00:00,"Tunnel Avenue, Greenwich, SE10, London, UK","IB","Greenwich borough council, 4x3 asphalt paving damage",51.489445,0.008867,"Greenwich"
"216",1940-09-07 18:00:00,"58 Sydenham Road, Sydenham, SE26, London, UK","EB","Shop and house of 5 rooms damaged. 6 shops opposite and adjoining damaged by explosion. One Section officer AFS injured",51.3809061,-0.0945262,"Croydon"
"217",1940-09-07 18:00:00,"40 Batavia Road, New Cross SE14, London, UK","IB","back rooms 1st floor damaged and 4x3 roof damage",51.4759926,-0.0387475,"Lewisham"
"218",1940-09-07 18:00:00,"Swedish yard, Surrey, Commercial Docks, SE16, London, UK","COB","stack of timber and 30x20 damaged",51.499399,-0.127391048333331,"Westminster"
"219",1940-09-07 18:00:00,"Barnards Wharf 341, Rotherhithe Street, SE16, London, UK","IB","Timber Merchants, 200x200 two floor buildings, 2/3 content lost.",51.5019456,-0.0333414,"Southwark"
"220",1940-09-07 18:00:00,"Rotherhithe Street, SE16, London, UK","IB","Wharfingers. 300x100 1-3 floor buildings, contents severely damaged",51.500949,-0.056106,"Southwark"
"221",1940-09-07 18:00:00,"299 Rotherhithe Street, SE16, London, UK","IB","Timber Merchants, 500x400  and 4/5 of contents severely damaged",51.5017508,-0.0333403,"Southwark"
"222",1940-09-07 18:00:00,"Redriff School, Rotherhithe Street, SE16, London, UK","IB","range of buildings between 1-4 floors, covering 200x200 severely damaged",51.5068875,-0.0418882,"Southwark"
"223",1940-09-07 18:00:00,"1 Redriff Road, Rotherhithe, SE16, London, UK","EB","Many buildings in this thorough fare are severely damaged",51.49449445,-0.0458973755447185,"Southwark"
"224",1940-09-07 18:00:00,"12 Jewel Street, Stepney E1, London, UK","IB","Front room on first floor and contents damaged. Ceiling slightly under by water",51.516152,-0.046262,"Tower Hamlets"
"225",1940-09-07 18:00:00,"128 Aylward Street, Stepney E1, London, UK","IB","Timber yard and offices of two floors and contents severely damaged",51.5159751,-0.0462106,"Tower Hamlets"
"226",1940-09-07 18:00:00,"Wapping Wall E1, London, UK","IB","Metropolitan Wharf-A building of 2 floors about 100 x 60 feet ( used as warehouse office and store) severely damaged",51.5065501,-0.0528522,"Tower Hamlets"
"227",1940-09-07 18:00:00,"Sidney Street Stepney E1, London, UK",NA,"Minor fire and explosion damage",51.5199174,-0.0562907,"Tower Hamlets"
"228",1940-09-07 18:00:00,"Greenwich foot subway, London, UK","EB","London County Council. 60 ft of tunnel and lift shaft on north side damaged",51.4849398,-0.00974260605877263,NA
"229",1940-09-07 18:00:00,"39 Saundersness Road, Cubitt Town, E14., London, UK","EB","20 houses damaged",51.492132,-0.011108,"Tower Hamlets"
"230",1940-09-07 18:00:00,"Nos. 81-8 Yarrow House, Glengall Grove, Millwall, E14, London, UK","EB","Three 4-floor buildings, and contents damaged",51.4952744,-0.010925,"Tower Hamlets"
"231",1940-09-07 18:00:00,"8 Maudesley House, Glengall Grove, Millwall, E14, London, UK","EB","Rest of street of 48 houses damaged by breakage",51.4952744,-0.010925,"Tower Hamlets"
"232",1940-09-07 18:00:00,"8 Hibbert House, Glengall Grove, Millwall, E1, London, UK","EB","Rest of street of 48 houses damaged by breakage",51.4952319,-0.0107574,"Tower Hamlets"
"233",1940-09-07 18:00:00,"332 Hibbert House, Glengall Grove, Millwall, E1, London, UK","EB","Rest of street of 48 houses damaged by breakage",51.4964775,-0.0240621560617759,"Tower Hamlets"
"234",1940-09-07 18:01:00,"39 Whitbread Road, 31-49 Whitbread Road, Brockley, SE4, London, UK","EB","10 private houses damaged",51.41734595,-0.0851118500000118,"Croydon"
"235",1940-09-07 18:01:00,"2a Kneller Road, Brockley, SE4, London, UK","IB","Middle room damaged",51.4609225,-0.0380983,"Lewisham"
"236",1940-09-07 18:01:00,"3 Kneller Road, Brockley, SE4, London, UK","IB","Front room on 1st floor severely damaged",51.4609225,-0.0380983,"Lewisham"
"237",1940-09-07 18:01:00,"Sutton Dweillings, Chilton Grove, Deptford, SE8, London, UK","IB","front room on 1st floor damaged.",51.5420244,-0.104141617870104,"Islington"
"238",1940-09-07 18:01:00,"Greenstead Road, Deptford SE8, London, UK","IB","IB burned out in street",51.513263,-0.089878,"City of London"
"239",1940-09-07 18:01:00,"Well St, Hackney, E9, London, UK","IB","London Passenger Transport Board- An Omnibus Reg. No. EXV 246. Top deck severely damaged. Lower deck slightly damaged",51.5416308,-0.0489372,"Hackney"
"240",1940-09-07 18:01:00,"360 Stepney Way, E1, London, UK","IB","2x2 Roof damage",51.517383,-0.0539466,"Tower Hamlets"
"241",1940-09-07 18:01:00,"10 Stepney High Street, E1, London, UK","IB","4x2 roof damage",51.5172723,-0.0426336,"Tower Hamlets"
"242",1940-09-07 18:01:00,"42 Stephney High Street E1, London, UK","IB","Timber shed, 30x10 (used as store) damaged",51.513263,-0.089878,"City of London"
"243",1940-09-07 18:01:00,"Aylward Street London E1 OQW, London, UK","EB.and.IB","Minor fire damage in this area",51.5158329,-0.0475542,"Tower Hamlets"
"244",1940-09-07 18:01:00,"Westferry Road, Millwall, E14, London, UK","EB","Lead and Zinc Manufacturers. 40 x20 of wharfside and a 60x40 building, office and machine room, damaged",51.5061511,-0.0273031,"Tower Hamlets"
"245",1940-09-07 18:02:00,"Old Kent Road, SE1, London, UK","EB","Belonging to South Metropolitan Gas Works: 3, 000, 000 cubic feet of gas destroyed and a gas holder severely damaged. A range of buildings including work rooms, showrooms and offices damaged by fire.",51.4989327,-0.0736274,"Southwark"
"246",1940-09-07 18:02:00,"Devon Street, SE1, London, UK","EB","All buildings in this thoroughfare damaged by explosion",51.513263,-0.089878,"City of London"
"247",1940-09-07 18:02:00,"St. Catherine's Church,Pepys Rd, Lewisham, London SE14, United Kingdom, London, UK","EB","Nave severely damaged by fire and most of roof is off.",51.4729224,-0.0453632,"Lewisham"
"248",1940-09-07 18:02:00,"3 Blackheath Vale, Blackheath SE3, London, UK","IB","Back room on 1st floor and contents damaged",51.513263,-0.089878,"City of London"
"249",1940-09-07 18:02:00,"22 Blackheath Vale, Blackheath SE3, London, UK","IB","Groundfloor passage damaged.",51.4691712,0.0042574,"Lewisham"
"250",1940-09-07 18:02:00,"48 Eglinton Hill, Plumstead, SE18, London, UK","EB","All private houses damaged",51.4746692,0.06939,"Greenwich"
"251",1940-09-07 18:02:00,"Brent Road, Plumstead, SE18, London, UK","EB","All private houses damaged",51.5150179,0.0213155,"Newham"
"252",1940-09-07 18:02:00,"Trundley's Road, Deptford, SE16, London, UK","IB","9 privates houses damaged",51.4871313,-0.0433041,"Lewisham"
"253",1940-09-07 18:02:00,"Milborne St, Hackney E9, London, UK","IB","Milbourne Piano Works, building of 3 floors, 30 x 20ft used as workrooms, offices and stores, about 14 x 1oft or roof damaged. Doors broken open. Ceiling and contents under by water",51.5431252,-0.0490081,"Hackney"
"254",1940-09-07 18:02:00,"East India Dock Rd, London, UK
Poplar, Greater London E14, London, UK","IB","2x1 paving damage",51.510924,-0.018472,"Tower Hamlets"
"255",1940-09-07 18:02:00,"Thomas Road E14, London, UK","IB","1x1 paving damage",51.5146947,-0.0283306,"Tower Hamlets"
"256",1940-09-07 18:02:00,"Manchester Road, Cubitt Town, E14, London, UK","EB","40x 30 roadway damage. And Three houses each of 8 rooms and contents damaged",51.5008976,-0.0088069,"Tower Hamlets"
"257",1940-09-07 18:02:00,"Manchester Road, Cubitt Town, E14, London, UK","EB","40x 30 roadway damage. And Three houses each of 8 rooms and contents damaged",51.5008976,-0.0088069,"Tower Hamlets"
"258",1940-09-07 18:03:00,"Bolinn Road, Deptford, SE16, London, UK","IB","Shop and house of 6 rooms damaged by explosion. Also gas main fractured and about 30x20 of roadway damaged",51.4877978,-0.043622,"Lewisham"
"259",1940-09-07 18:03:00,"Avonley Road, Newcross, SE14, London, UK","EB","Owned by South Met Gas and Met Water and Deptford Borough Council, gas and water mains fractured and 40x16 of roadway damage",51.478873,-0.050414,"Lewisham"
"260",1940-09-07 18:03:00,"15-21 Hundson Road, Newcross, SE14, London, UK","EB","Four private houses damaged by explosion",51.49289755,-0.104157599999995,"Southwark"
"261",1940-09-07 18:03:00,"25, Upcott Street, SE15, London, UK","IB","Two private houses damaged by explosion",51.51521655,-0.0838780761174712,"City of London"
"262",1940-09-07 18:03:00,"Jeringham Road, Newcross, SE14, London, UK","IB","Building of two floors 100x 50, back room aand contents slightly damaged.",51.4736737,-0.0573427,"Southwark"
"263",1940-09-07 18:03:00,"26 Bushmoor Crescent, Plumstead, SE18, London, UK","EB","All private houses damaged",51.4740831,0.0713002,"Greenwich"
"264",1940-09-07 18:03:00,"22 Matlock Street, Poplar, Greater London E14 7, London, UK","IB","front room on 1st floor and contents damaged",51.51546635,-0.0396186986199187,"Tower Hamlets"
"265",1940-09-07 18:03:00,"Burdett Road, E3, London, UK","IB","2x1 paving damage",51.5176649,-0.0299186,"Tower Hamlets"
"266",1940-09-07 18:03:00,"Dudgeons Wharf, Manchester Road, Cubitt town, E14, London, UK","EB","40x10 brickworkand damaged",51.5008976,-0.0088069,"Tower Hamlets"
"267",1940-09-07 18:03:00,"Transporter Yard, East Ferry Road, Millwall, E14, London, UK","IB","20 Timber shed buildings each 10 x 6 ad 1 acre of undergrowth burned.",51.4944229,-0.0143504,"Tower Hamlets"
"268",1940-09-07 18:04:00,"207 Waller Road, Newcross, SE14, London, UK","IB","6x4 of GRASS burned in garden",51.4683523,-0.0470990108774984,"Lewisham"
"269",1940-09-07 18:04:00,"Riverway, Blackwall Lane, East Greenwich, SE10, London, UK","EB","40x30 roadway severely damged, gas main fractured, 20 private houses danaged",51.486011,0.007239,"Greenwich"
"270",1940-09-07 18:04:00,"Riverway, Blackwall Lane, East Greenwich, SE10, London, UK","EB","40x30 roadway severely damged, gas main fractured, 20 private houses danaged",51.486011,0.007239,"Greenwich"
"271",1940-09-07 18:04:00,"94-120, Riverway, Blackwall Lane, East Greenwich, SE10, London, UK","EB","40x30 roadway severely damged, gas main fractured, 20 private houses danaged",51.4839838,0.0014102,"Greenwich"
"272",1940-09-07 18:04:00,"100-108 Riverway, Blackwall Lane, East Greenwich, SE10, London, UK","EB","40x30 roadway severely damged, gas main fractured, 20 private houses danaged",51.4864147,0.0384078,"Greenwich"
"273",1940-09-07 18:04:00,"North Atlantic Import Shed, Finland Yard Surrey, Commercial Docks, SE16, London, UK","COB","4 floor building, 300x80 severely damaged",51.495852,-0.037898,"Southwark"
"274",1940-09-07 18:04:00,"2 Hick Street, Rotherhithe, SE16, London, UK","IB","front room on ground floor damaged.",51.5487166,-0.0792855081973888,"Islington"
"275",1940-09-07 18:04:00,"Priory Place, Well Street, Hackney E9, London, UK","IB","Front room on first floor and contents slightly damaged. 4 x 2ft of roof by breakage",51.5416308,-0.0489372,"Hackney"
"276",1940-09-07 18:04:00,"275 Bancroft Road, Tower Hamlets London E1, London, UK","IB","A3 block, about 6 x 4 ft of roof damaged. Ceiling and contents under slightly by water",51.5249543,-0.0432759,"Tower Hamlets"
"277",1940-09-07 18:04:00,"4 Ainsworth Road, Hackney, E2, London, UK","IB","House of 10 rooms, front room on top floor and contents severely damaged. Part of roof off. Rest of house and contents slightly damaged.",51.5387491,-0.050124,"Hackney"
"278",1940-09-07 18:04:00,"North Woolwich Roads E, London, UK","IB","Dumb barge damaged",51.513263,-0.089878,"City of London"
"279",1940-09-07 18:04:00,"307 Stepney Way E1, London, UK","IB","Private house of 6 rooms, back rooms, 2nd 3rd floors damaged",51.513263,-0.089878,"City of London"
"280",1940-09-07 18:04:00,"Glengall Grove, Millwall, E14, London, UK","EB.and.IB","Lancashire Freight Services Ltd. 1,2 and 3 floor buildings  covering 500x500 used as warehouses. Severely damaged",51.4952744,-0.010925,"Tower Hamlets"
"281",1940-09-07 18:05:00,"112 Waller Road, Newcross, SE14, London, UK","IB","Front room damaged by fire",51.4696738,-0.0481289289647691,"Lewisham"
"282",1940-09-07 18:05:00,"Lewisham High Street, Se13, London, UK","EB","Southern Met. Electric, light and Power) 100x40 four floor building. Space used as showroom",51.4505253,-0.0169312,"Lewisham"
"283",1940-09-07 18:05:00,"97 Ainsworth Road, Hackney E9, London, UK","IB","House of 12 rooms, front room on top floor and contents severely damaged. Part of roof off. Rest of building and contents slightly damaged.",51.5397153,-0.050745,"Hackney"
"284",1940-09-07 18:05:00,"Wellington Way Buildings, Wellington Way, Bow E3, London, UK","IB","Building of 3 floors about 60x 30 feet, (used as dwellings) about 1/2 of top floor and contents damaged. Roof damaged by breakage",51.513263,-0.089878,"City of London"
"285",1940-09-07 18:05:00,"Stebondale St, London, UK
Poplar, Greater London E14 3, London, UK","IB","A house and a Grocery shop of 6 rooms and contents severly damges",51.4883121,-0.0094641,"Tower Hamlets"
"286",1940-09-07 18:05:00,"Bow Rd, London, UK
Poplar, Greater London E3, London, UK","IB","St. Clement's Hospital. Mental observation home. 3x2 roof damage",51.5281444,-0.0229147,"Tower Hamlets"
"287",1940-09-07 18:05:00,"Old Gravel Lane, Wapping E1, London, UK","IB","Port of London Authority. 350x 120 one floor building, general warehouse, and contents severely damaged",51.513263,-0.089878,"City of London"
"288",1940-09-07 18:06:00,"Axminster Road, Holloway, N7, London, UK","EB","9x6 pavement damaged, fractures gas main in street",51.5609212,-0.118221,"Islington"
"289",1940-09-07 18:06:00,"Axminster Road, Holloway, N7, London, UK","EB","32 private houses thoroughfare damaged by explosion.",51.5609212,-0.118221,"Islington"
"290",1940-09-07 18:06:00,"Waller Road, Newcross, SE14, London, UK","IB","IB burned out in garden",51.472483,-0.048675,"Lewisham"
"291",1940-09-07 18:06:00,"Loampit Vale Lewisham, SE13, London, UK","EB","All builidings damaged",51.463453,-0.012605,"Lewisham"
"292",1940-09-07 18:06:00,"Canon Wharf, Evelyn Street, Deptford,SE8, London, UK","IB","stack of timber and 100x100x30 damaged",51.4900316,-0.0421094,"Lewisham"
"293",1940-09-07 18:06:00,"97 Stebondal Street Cubitt Town E14, London, UK","IB","Shop on ground floor and contents severely damaged",51.492132,-0.011108,"Tower Hamlets"
"294",1940-09-07 18:06:00,"48 Stebondale Street, Cubitt Town E14, London, UK","IB","Front room on first floor and contents severely damaged",51.4901045,-0.00836916825209657,"Tower Hamlets"
"295",1940-09-07 18:06:00,"75, Stebondale Street Cubitt Town E14, London, UK","IB","Front room on first floor and contents damaged",51.4883121,-0.0094641,"Tower Hamlets"
"296",1940-09-07 18:06:00,"White Horse Rd, Tower Hamlets, London E1, UK, London, UK","EB.and.IB","Minor fire damage in this area",51.5135392,-0.0408311,"Tower Hamlets"
"297",1940-09-07 18:07:00,"Childeric Road, Newcross, SE14, No's 21-61 and 10 40, London, UK","EB","37 Private houses damaged by explosion",51.4771728,-0.0377901,"Lewisham"
"298",1940-09-07 18:07:00,"Ruddigore Road, Newcross, SE14, No's 2-16 and 1-9 , London, UK","EB","13 private houses damaged by explosion",51.5722732,-0.2958081,"Brent"
"299",1940-09-07 18:07:00,"Ruddigore Road, Newcross, SE14, , London, UK","EB","Fractures gas mains",51.515401,-0.1305917,"Westminster"
"300",1940-09-07 18:07:00,"12 St Austell Rd, Lewisham, Greater London SE13 7, London, UK","IB","Garage 20x15 Damaged with fencing",51.468001,-0.00718,"Lewisham"
"301",1940-09-07 18:07:00,"Morden Wharf Road, Greenwich SE10, London, UK","EB","Cement Marketing, range of buildings lost, 300x100 ft damaged. P.678 heavy unit damaged by shrapnel",51.493819,0.00443,"Greenwich"
"302",1940-09-07 18:07:00,"Tunnel Avenue, Greenwich, SE10, London, UK","EB.and.IB","Delta Metal Co. Ltd. 80x40 size offices and stores and contents. Roof off. 3 auxiliary firemen injured.",51.489445,0.008867,"Greenwich"
"303",1940-09-07 18:07:00,"215 Brockley Road, Forest Hill, SE23, London, UK","IB","2x1 roof damage",51.4629257,-0.0357462,"Lewisham"
"304",1940-09-07 18:07:00,"110 Gosterwood Street, Deptford, SE8, London, UK","IB","9x6 roof damaged",51.4839812,-0.0381531479744896,"Lewisham"
"305",1940-09-07 18:07:00,"81 Plough Way, Rotherhithe SE16, London, UK","EB","St. Barnabas National School & Minetts Saw Mills Ltd. Dining Room, Grocers and 17 private houses all damaged,",51.4927306,-0.0405634,"Southwark"
"306",1940-09-07 18:07:00,"4 Ainsworth RD, Hackney, E9, London, UK","IB","Front rooms on 3rd floor and contents severely damaged. part of roof off, ceilings and contents under by water.",51.5397153,-0.050745,"Hackney"
"307",1940-09-07 18:07:00,"Addington Road, Bow E3, London, UK","IB","About 6 x 4ft of roofing slightly damaged.",51.3474273,-0.0519826,"Croydon"
"308",1940-09-07 18:07:00,"86, Manchester Road, Cubitt Town E14, London, UK","EB","Caterer-A building of 3 floors about 40x 20 ft used as refreshment bar, swelling and store, upper part and contents damaged.",51.4875192,-0.0103969,"Tower Hamlets"
"309",1940-09-07 18:07:00,"9 Merchant Street Bow, E3, London, UK","IB","2x1 roof damage",51.5260148,-0.0272722,"Tower Hamlets"
"310",1940-09-07 18:07:00,"33 Merchant Street, Bow, E3, London, UK","IB","front room on 1st floor and contents damaged",51.5260148,-0.0272722,"Tower Hamlets"
"311",1940-09-07 18:07:00,"78 Merchant Street, Bow, E3, London, UK","IB","Back room on 1st floor damaged. 2x1 roof damage",51.5260148,-0.0272722,"Tower Hamlets"
"312",1940-09-07 18:08:00,"13 Bartram Road, Brockley, SE4, London, UK","IB","Back room on 1st floor and contents damaged",51.452888,-0.0395366857142852,"Lewisham"
"313",1940-09-07 18:08:00,"11 Bartram Road, Brockley, SE4, London, UK","IB","Back room on 1st floor and contents damaged",51.45289635,-0.0394563272257573,"Lewisham"
"314",1940-09-07 18:08:00,"75 Chilton Grove,Deptford SE8, London, UK","IB","house of 8 rooms damaged",51.4914752,-0.041941,"Southwark"
"315",1940-09-07 18:08:00,"Stepney Green, E1, London, UK","IB","1x1 tarmac damaged",51.5177487,-0.0427772,"Tower Hamlets"
"316",1940-09-07 18:08:00,"Stepney Causeway, Stepney, E1, London, UK","IB","Training Hostel. 4 floor building, top floors and basement severely damaged.",51.5125237,-0.0451339,"Tower Hamlets"
"317",1940-09-07 18:08:00,"Latimer Street, Stepney, E1, London, UK","EB.and.IB","Minor fire damage in this area",51.513263,-0.089878,"City of London"
"318",1940-09-07 18:09:00,"293, Tunnel Avenue, Greenwich SE10, London, UK","IB","Eastwood Wharfage Ltd. 300x100, warehouse and stores damged, most of roof off",51.4955259,0.0035687,"Greenwich"
"319",1940-09-07 18:09:00,"Clemence St, London, UK
Poplar, Greater London E14 7, London, UK","EB","Buidings at these addresses all damaged",51.5160216,-0.0330956,"Tower Hamlets"
"320",1940-09-07 18:09:00,"Locksley St, Tower Hamlets, London E14 7EJ, London, UK","EB","Buidings at these addresses all damaged",51.516726,-0.0310121,"Tower Hamlets"
"321",1940-09-07 18:10:00,"270 Ardgowan Road, Catford, SE6, 293 Torridon Road Catford SE6, London, UK","EB","Three private houses damaged",51.440221,-0.0017249,"Lewisham"
"322",1940-09-07 18:10:00,"38a Stondon Park, Forest Hill, SE23, London, UK","IB","Front room on 1st floor severely damaged. One female burned on left arm",51.4476945,-0.0415999,"Lewisham"
"323",1940-09-07 18:10:00,"Blackhorse Road, Deptford SE8, London, UK","IB","Weyland Tar Co. Quantity of Stock damaged",51.513263,-0.089878,"City of London"
"324",1940-09-07 18:10:00,"209a, Mile End Road E1, London, UK","IB","Mantle and Costume Manufacturers-A building of 2 floors about 80x 30 ft used as workrooms, garage, office ad store. 1/2 of contents severely damaged. Part of roof off. rest of building and contents slightly damaged.",51.513263,-0.089878,"City of London"
"325",1940-09-07 18:10:00,"15, Harford Street, Stepney E2, London, UK","IB","Boot and shoe Manufacturer- Shop and house of 8 rooms and contents severely damaged.",51.5229858,-0.040019,"Tower Hamlets"
"326",1940-09-07 18:10:00,"35 Grantely Street, Mile End E1, London, UK","IB","A house of 8 rooms and contents severely damaged. Roof off",51.525053,-0.040442,"Tower Hamlets"
"327",1940-09-07 18:10:00,"Drawn Buildings, Adelina Grove, Stepney E1, London, UK","EB","A building of 5 floors about 100 x 80ft (used as model dwellings) about 1/4 and contents damaged. Rest of building and content slightly damaged.",51.519474,-0.0544082,"Tower Hamlets"
"328",1940-09-07 18:10:00,"St Clement's Hostel, Bow Road E3, London, UK","IB","Building of 3 floors about 80x 60ft severely damaged. Roof by breakage",51.509648,-0.099076,NA
"329",1940-09-07 18:10:00,"28, Bow Road, Bow E3, London, UK","IB","Back room on 3rd floor and contents slightly damaged. Roof by breakage",51.52643665,-0.0264038009601403,"Tower Hamlets"
"330",1940-09-07 18:10:00,"113-149 Stebondale Street. Cubitt Town E14, London, UK","EB","39 houses each of 6 rooms including 4 shops and contents severely damaged",51.4883121,-0.0094641,"Tower Hamlets"
"331",1940-09-07 18:10:00,"156-194 Stebondale Street Cubitt Town E14, London, UK","EB","39 houses each of 6 rooms including 4 shops and contents severely damaged",51.4883121,-0.0094641,"Tower Hamlets"
"332",1940-09-07 18:10:00,"101-111 Stebondale Street, Cubitt Town E14, London, UK","EB","6 houses each of 6 rooms and contents damaged",51.4883121,-0.0094641,"Tower Hamlets"
"333",1940-09-07 18:10:00,"38 Cayley Street, E14, London, UK","IB","Back room on ground floor damaged.",51.513263,-0.089878,"City of London"
"334",1940-09-07 18:10:00,"Harford Street E1, London, UK","IB","1x1 tarmac damaged",51.513263,-0.089878,"City of London"
"335",1940-09-07 18:11:00,"Gibbon Road, Camberwell, SE15, London, UK","EB","20x30 roadway damage",51.467778,-0.051776,"Southwark"
"336",1940-09-07 18:11:00,"733b, Old Kent Road, SE15, London, UK","EB","Submarine engineer shop, workshops, office and store all damaged.",51.4833978,-0.0646782,"Southwark"
"337",1940-09-07 18:11:00,"735-737 Old Kent Road SE15, London, UK","EB","Two shops and two flats",51.4809463,-0.0599829,"Southwark"
"338",1940-09-07 18:11:00,"Buchan Road, Camberwell, SE15, London, UK","EB","Gas main fractured and about 30x20 of roadway damaged by explosion and fire",51.465657,-0.053235,"Southwark"
"339",1940-09-07 18:11:00,"Lewisham high Street SE13, London, UK","EB","Southern Rail. 40x20 brickwork on railway bridge damaged",51.4505253,-0.0169312,"Lewisham"
"340",1940-09-07 18:11:00,"Lower Road, Rotherhithe, SE16, London, UK","IB","IB burned out in street.",51.4902402,-0.0424732,"Lewisham"
"341",1940-09-07 18:11:00,"A Yard, Millwall Dock E14, London, UK","IB","A warehouse of 1 floor about 150x 150 feet and contents severely damaged. Basement used as messrooms, dormitories, offices and store, and contents damaged",51.5869681,-0.0415525277464496,"Waltham Forest"
"342",1940-09-07 18:11:00,"84a, West Ferry Road, Millwall E14, London, UK",NA,"Timber Importers-A range of brick and corrugated iron shed buildings of one floor covering an area of 400x 200ft. About 1/2 of contents severely damaged",51.490135,-0.020035,"Tower Hamlets"
"343",1940-09-07 18:12:00,"Dunoon Road, Forest Hill, SE23, London, UK","EB","Owned by LewishamBC 12x8 Roadway damage",51.447493,-0.051725,"Lewisham"
"344",1940-09-07 18:12:00,"Knoyle Street, New Cross, SE14, London, UK","EB","South Met. Gas. Mains Fractured",51.481612,-0.04156,"Lewisham"
"345",1940-09-07 18:12:00,"Mornington Road, Bow E3, London, UK","IB","Incendiary bomb on road",51.6341076,0.001975,"Waltham Forest"
"346",1940-09-07 18:12:00,"32, Devas Street, Poplar E14, London, UK","IB","House of 4 rooms, severely damaged",51.5231897,-0.0134844,"Tower Hamlets"
"347",1940-09-07 18:12:00,"45-47 Mile End Road, Stepney, E1, London, UK","EB","Garage. Two floor building severely damaged, roof off.",51.5205409,-0.0529584,"Tower Hamlets"
"348",1940-09-07 18:12:00,"Spert St, London, UK
Tower Hamlets, London E14 8EB, London, UK","EB","Paper Mills. 100x80 two floor building, severely damaged",51.5104005,-0.040519,"Tower Hamlets"
"349",1940-09-07 18:13:00,"13 Bartham Road, Brockley, SE4, London, UK","IB","Back room on 1st floor and contents damaged",51.452888,-0.0395366857142852,"Lewisham"
"350",1940-09-07 18:13:00,"Bow Road, Bow E3, London, UK","IB","St. Clement's. Old Nurses's Home, 80x20 two floor building, 3/4 damaged and roof off",51.5281444,-0.0229147,"Tower Hamlets"
"351",1940-09-07 18:13:00,"62 Ashton Street E14, London, UK","IB","House of 4 rooms, top floor and contents damaged",51.513263,-0.089878,"City of London"
"352",1940-09-07 18:13:00,"Cottage Street, Poplar, E14, London, UK","IB","Number of IB burned out on road",51.5106025,-0.0149553,"Tower Hamlets"
"353",1940-09-07 18:13:00,"Commercial Rd, Poplar, Greater London E1, London, UK","EB","East End Mission Society. Building of one floor and and contents damaged",51.5123002,-0.0294159,"Tower Hamlets"
"354",1940-09-07 18:14:00,"51 Lewisham Hill, SE13, London, UK","EB","4 private houses of 20 rooms each and contents damaged.",51.4678886,-0.00931688314985636,"Lewisham"
"355",1940-09-07 18:14:00,"53 Lewisham Hill, SE13, London, UK","EB","4 private houses of 20 rooms each and contents damaged.",51.468265,-0.00911874002234403,"Lewisham"
"356",1940-09-07 18:14:00,"55 Lewisham Hill, SE13, London, UK","EB","4 private houses of 20 rooms each and contents damaged.",51.4684669,-0.0090223,"Lewisham"
"357",1940-09-07 18:14:00,"57 Lewisham Hill, SE13, London, UK","EB","4 private houses of 20 rooms each and contents damaged.",51.4684669,-0.0090223,"Lewisham"
"358",1940-09-07 18:14:00,"Carlton Works, Glengall Grove, Millwall, E14, London, UK","EB.and.IB","Walter Voss and Co Manufacturing Chemists. 200x200 used as laboratories, store and contents severely damaged",51.4952744,-0.010925,"Tower Hamlets"
"359",1940-09-07 18:14:00,"Carlton Works, Glengall Grove, Millwall, E14, London, UK","EB.and.IB","Speedy Metal Castings Ltd. 200x60  Machine Room, workshop and contents damaged",51.4952744,-0.010925,"Tower Hamlets"
"360",1940-09-07 18:15:00,"309, New Cross Road, New Cross SE14, London, UK","IB","2x1 roof damage",51.4757013,-0.0377214,"Lewisham"
"361",1940-09-07 18:15:00,"Woolwich Road, Charlton, SE10, London, UK","IB","G & H Harveys, Engineers, 3x2 roof damage in spinning room",51.48658,0.021832,"Greenwich"
"362",1940-09-07 18:15:00,"72, Codrington Hill, Forest Hill, SE23, London, UK","IB","house of 5 rooms damaged. Roof blown off",51.4482437,-0.0380771,"Lewisham"
"363",1940-09-07 18:15:00,"5 Stondon Park, Forest Hill, SE23, London, UK","IB","3x1 wooden fencing damaged,",51.4476945,-0.0415999,"Lewisham"
"364",1940-09-07 18:15:00,"24 Codrington Hill, Forest Hill, SE23, London, UK","IB","Front room on 1st floor severely damaged",51.4482437,-0.0380771,"Lewisham"
"365",1940-09-07 18:15:00,"14, Glaskin Mews E9, London, UK","IB","Front room on second floor and contents slightly damaged. 2 x 4 ft of roof by breakage",51.513263,-0.089878,"City of London"
"366",1940-09-07 18:15:00,"Methodist Church, Stebondale Street, Cubitt Town E14. 151-163 Stebondale Street Cubitt Town E14. 100-124 Stebondale Street Cubitt Town E14, London, UK","EB","Church and 20 private houses each of 6 rooms, including three shops and contents severely damaged",NA,NA,NA
"367",1940-09-07 18:15:00,"North Side, Import Dock, West India Docks E14, London, UK","IB","""C"" shed- about 60x60 ft or roof damaged",55.164529,-1.823816,NA
"368",1940-09-07 18:15:00,"Lying at North Side Import Dock, West India Docks E14, London, UK","IB","Part of London Authority-A vessel of 3,000 tons gross, laden with general cargo, poop and contents damaged",51.47907895,-0.0111452500000048,"Greenwich"
"369",1940-09-07 18:15:00,"Masters Street E1, London, UK","IB","1x1 tarmac damaged",51.5192999,-0.0409885,"Tower Hamlets"
"370",1940-09-07 18:15:00,"Tidey Street E14, London, UK","IB","1x1 tarmac damaged",51.5197637,-0.0216919,"Tower Hamlets"
"371",1940-09-07 18:15:00,"St Paul's Way, E3, London, UK","IB","1x1 tarmac damaged",51.5181214,-0.0262533,"Tower Hamlets"
"372",1940-09-07 18:15:00,"Raine Street, Tower Hamlets, London E1W, London, UK","EB","Minor fire damage in this area",51.506657,-0.057766,"Tower Hamlets"
"373",1940-09-07 18:16:00,"272 New Cross Road, SE15, London, UK","IB","2x2 roof damage",51.4749024,-0.0396795,"Lewisham"
"374",1940-09-07 18:16:00,"Aston Street E14, London, UK","IB","1x1 feet of tarmac damaged",51.5155422,-0.0387041,"Tower Hamlets"
"375",1940-09-07 18:16:00,"West Ferry Road, Millwall E14, London, UK","EB","About 30x30 feet of paving damaged and 4"" gas main fractured by explosion in yard",51.43001455,-0.323323672685084,"Richmond upon Thames"
"376",1940-09-07 18:17:00,"Stockholme Street, Rotherhithe, SE16, London, UK","COB","COB burnt out in enlosed ground",51.5136028,-0.1478907,"Westminster"
"377",1940-09-07 18:17:00,"Samudas Wharf, Manchester Road, Cubitt Town, E14, London, UK",NA,"Transport Contractors -A range of buildings of 2 floors covering an area about 800x300f (used as machine rooms, workshops, offices and store) and contents and some stock in yard including a number of motor lorries severely damaged.",51.5008976,-0.0088069,"Tower Hamlets"
"378",1940-09-07 18:17:00,"Samudas Wharf, Manchester Road, Cubitt Town, E14, London, UK",NA,"Engineers-A range of buildings of 2 floors covering an area about 800x300f (used as machine rooms, workshops, offices and store) and contents and some stock in yard including a number of motor lorries severely damaged.",51.5008976,-0.0088069,"Tower Hamlets"
"379",1940-09-07 18:17:00,"Samudas Wharf, Manchester Road, Cubitt Town, E14, London, UK",NA,"Stone Merchants-A range of buildings of 2 floors covering an area about 800x300f (used as machine rooms, workshops, offices and store) and contents and some stock in yard including a number of motor lorries severely damaged.",51.5008976,-0.0088069,"Tower Hamlets"
"380",1940-09-07 18:17:00,"Leven Street, Poplar, E14, London, UK","IB","Mills Cartwright and Reynolds. One floor back building 80x60 used a stockroom damaged",51.513263,-0.089878,"City of London"
"381",1940-09-07 18:17:00,"St. Leonard's Wharf, Brunswick Road, Poplar E14, London, UK","IB","10x6 deck planking damaged by fire and a dissused corrugated iron  and timber shed slightly damaged. 100x60 oil store contents slightly damaged",51.518572,-0.010074,"Tower Hamlets"
"382",1940-09-07 18:17:00,"Narrow Street, Limehouse, E14, London, UK","IB","New Sun Wharf. Three floor building, 80x60 used as store. Severely damaged.",51.5096479,-0.0368642,"Tower Hamlets"
"383",1940-09-07 18:18:00,"45 Yatton street, Poplar, E14, London, UK","IB","Front room on 1st floor and contents damaged",51.513263,-0.089878,"City of London"
"384",1940-09-07 18:18:00,"Commercial Rd, Poplar, Greater London E1, London, UK","EB","Minor fire damage in this area",51.5123002,-0.0294159,"Tower Hamlets"
"385",1940-09-07 18:19:00,"583, Commercial Road, Stepney E1, London, UK","IB","Methodist East End Mission. Building of 1 floor, balcony and basement about 100x 60ft, used as club rooms, billiard rooms, storeroom and lecture room. About 2/3 of content damaged.",51.51336585,-0.0429790838988279,"Tower Hamlets"
"386",1940-09-07 18:19:00,"South Side Coal Wharf, Mile End Road E3, London, UK","IB","London and North Eastern railway. Railway truck and contents damaged",51.509648,-0.099076,NA
"387",1940-09-07 18:19:00,"Selsey Street E14, London, UK","IB","1x1 feet of paving damaged",51.5175543,-0.0245628,"Tower Hamlets"
"388",1940-09-07 18:19:00,"333/339, Mile End Road E1, London, UK","COB","C.W.S tailoring department-2 upper floors and contents damaged. 2x2 ft of roof breakage",51.513263,-0.089878,"City of London"
"389",1940-09-07 18:19:00,"Mile End Road, E, London, UK","IB","Portuguese Jewish Cemetry 40 x 20 ft of grass burned",51.5230646,-0.0400236,"Tower Hamlets"
"390",1940-09-07 18:19:00,"Advance House, Talwin Street, Bromley E3, London, UK","IB","A building of 2 floors about 60 x 30 feet. First floor and contents slightly damaged.",51.5255908,-0.0126333,"Tower Hamlets"
"391",1940-09-07 18:19:00,"94 St.Leonard's Road, Poplar, E14, London, UK","IB","Front room on 1st floor and contents damaged, roof part off",51.5148179,-0.3144409,"Ealing"
"392",1940-09-07 18:19:00,"Tooke Street, Millwall E14, London, UK","EB","30x 30 roadway damaged. 11 Private houses  and one shop damaged",51.513263,-0.089878,"City of London"
"393",1940-09-07 18:19:00,"11 Tooke Street, Millwall E14, London, UK","EB","30x 30 roadway damaged. 11 Private houses  and one shop damaged",51.490135,-0.020035,"Tower Hamlets"
"394",1940-09-07 18:20:00,"St Leonards Road, Poplar, E14, London, UK","IB","A number of IB bombs burned out on road",51.5137445,-0.3143346,"Ealing"
"395",1940-09-07 18:20:00,"Import Dock, East India Docks, Poplar E14, London, UK","IB","Part of London Authority- A builing of 2 floors about 100 x 50 ft and contents including hydraulic crane and electric meter cupboard severely damaged. Building used as a hydraulic pressure house slightly damaged. Doors and window glass by breakage. Building of one floor 40 x 30ft about 4/5 severely damaged. Most part of roof damaged.",51.37145245,-2.37873505202703,NA
"396",1940-09-07 18:21:00,"St Leonard's Road, Poplar E14, London, UK","IB","Joinery and moulding manufacturer- A building of one floor about 80 x 40ft used as moulding manufacturers and contents slightly damaged. Window glass by breakage, part of roof off. A building of 2 floors about 30 x 20 ft and contents severely damaged.",51.5136546,-0.0098469,"Tower Hamlets"
"397",1940-09-07 18:21:00,"Eastern Dock, 10 Warehouse, London Dock, E1, London, UK","EB","Port of London Authority. Range of buildings all 1-6 floors, used as warehouse and stores.",51.536158,-0.12628,"Camden"
"398",1940-09-07 18:22:00,"St. James' Church, St. James'  Road, Newcross, SE14, London, UK","IB","3x2 rood damage",51.5483579,0.0147604,"Newham"
"399",1940-09-07 18:23:00,"Commercial Road, Stepney  E1, London, UK","EB","Minor fire damage in this area",51.5123002,-0.0294159,"Tower Hamlets"
"400",1940-09-07 18:24:00,"122 Lewisham High Street, Lewisham SE13, London, UK",NA,"4x2 roof damage and 2x2 flooring damage",51.4617401,-0.0103653,"Lewisham"
"401",1940-09-07 18:24:00,"Dundee Wharf, Limehouse, E14, London, UK","EB","Company name:Wharfage- A building of two floors about 200 x 100ft severely damaged. 9 motor vehicles damaged",51.5079717,-0.0297005963805314,"Tower Hamlets"
"402",1940-09-07 18:24:00,"566, Cable Street , Stepney E1, London, UK","EB","Confectionery and Fancy goods- Range of buildings of one, two and three floors. ( nused as workrooms, showrooms, offices and stores) about 2?3 severely damaged.",51.5113771,-0.0436751,"Tower Hamlets"
"403",1940-09-07 18:24:00,"24, Maria Street, Millwall E14, London, UK","EB","8 Houses, 6 rooms each, severely damaged",51.490135,-0.020035,"Tower Hamlets"
"404",1940-09-07 18:24:00,"52 Malabar Street, Millwall, E14, London, UK","EB","Remaining houses are also damaged",51.498559,-0.0233757,"Tower Hamlets"
"405",1940-09-07 18:25:00,"733, Old Kent Road, SE15, London, UK","EB","Shop and house of 6 rooms  damaged",51.4808778,-0.0602094,"Southwark"
"406",1940-09-07 18:25:00,"Morant St, London, UK
Poplar, Greater London E14, London, UK","EB","Poplar Borough Council- 20 x 10ft of roadway and paving damaged. Many houses in this thoroughfare damaged",51.510135,-0.021884,"Tower Hamlets"
"407",1940-09-07 18:25:00,"Harford Street, Stepney, E1, London, UK","IB","A building of 2 floors about 60 x 40 feet( used as licensed premises, dwelling and store). Top floor and contents severely damaged by fire and part of roof off.",51.522558,-0.0396063,"Tower Hamlets"
"408",1940-09-07 18:26:00,"13 Laurie Grove, Deptford, SE14, London, UK","IB","3x2 roof damage",51.47475785,-0.0371805361365796,"Lewisham"
"409",1940-09-07 18:27:00,"Town Hall, Newcross, SE14, London, UK","IB","2x2 roof damage",51.438015,-0.048947,"Lewisham"
"410",1940-09-07 18:27:00,"Vesta Road, Newcross, SE14, London, UK","IB","40x20 on one floor as building used as library damaged",51.4685365,-0.0415265,"Lewisham"
"411",1940-09-07 18:27:00,"131 Pepy's Road, Newcross, SE14, London, UK","IB","3x2 roof damage",51.4688405,-0.0437854,"Lewisham"
"412",1940-09-07 18:27:00,"129 Pepy's Road, Newcross, SE14, London, UK","IB","3x2 roof damage",51.4689222,-0.0438062,"Lewisham"
"413",1940-09-07 18:27:00,"123 Pepy's Road, Newcross, SE14, London, UK","IB","2x1 roof damage",51.4692131,-0.0438585,"Lewisham"
"414",1940-09-07 18:27:00,"97 Pepy's Road, Newcross, SE14, London, UK","IB","1x1 roof damage",51.4700686,-0.0440808,"Lewisham"
"415",1940-09-07 18:27:00,"23 Pepy's Road, Newcross, SE14, London, UK","IB","3x2 roof damage",51.4729489,-0.0450649,"Lewisham"
"416",1940-09-07 18:27:00,"91 Pepy's Road, Newcross, SE14, London, UK","IB","3x2 roof damage",51.47025075,-0.0441719198529242,"Lewisham"
"417",1940-09-07 18:27:00,"53 Stewart Road, Nunhead, SE15, London, UK",NA,"IB unginited",51.5525657,-0.00263357748263543,"Waltham Forest"
"418",1940-09-07 18:27:00,"poplar Docks, Preston Road, Poplar, E14, London, UK","EB","60x60 railway track damaged.15 acre 4 floor builing including vehicles in yard and machinery all damaged.",51.417573,-0.24698,"Merton"
"419",1940-09-07 18:28:00,"21 Pepy's Road, Newcross, SE14, London, UK","IB","2x1 roof damage",51.4730094,-0.0450827551139857,"Lewisham"
"420",1940-09-07 18:28:00,"29 Pepy's Road, Newcross, SE14, London, UK","IB","House of eight rooms, back room on groung floor and contents damaged by fire",51.4727315,-0.0449922997768122,"Lewisham"
"421",1940-09-07 18:28:00,"Newcross Gate, Newcross, SE14, London, UK","IB","London Passenger Transport board, building of on e floor about 300 x100 used as tramcar shed and 6x4 of roof and two tramcars slightly damaged by fire.",51.461636,0.013025,"Greenwich"
"422",1940-09-07 18:28:00,"104 Skidmore street. Stepney, E1, London, UK","IB","House of 5 rooms about 1/2 and contents severely damaged. Part of roof off. rest of house and contents slightly damaged.",51.516152,-0.046262,"Tower Hamlets"
"423",1940-09-07 18:29:00,"Deptford Church Street, SE8, London, UK","IB","IB burned out in street.",51.513263,-0.089878,"City of London"
"424",1940-09-07 18:29:00,"Coutts Rd E.3, London, UK","IB","1 x 1ft of tarmac damaged in street",51.513263,-0.089878,"City of London"
"425",1940-09-07 18:29:00,"North Quay, West, India Docks, E14, London, UK","EB.and.IB","Range of warehouses covering 2000x120 severely damaged",51.5070447,-0.0223725,"Tower Hamlets"
"426",1940-09-07 18:30:00,"141 Jeringham Road, Newcross SE14, London, UK","IB","2x2 roof damage",51.46988385,-0.041613667585306,"Lewisham"
"427",1940-09-07 18:30:00,"150 Jeringham Road, Newcross SE14, London, UK","IB","3x2 roof damage",51.4688924,-0.0434128078740148,"Lewisham"
"428",1940-09-07 18:30:00,"165 Jeringham Road, Newcross SE14, London, UK","IB","3x2 roof damage",51.46565795,-0.0107686553063167,"Lewisham"
"429",1940-09-07 18:30:00,"Newcross Road, Opposite tram depot, Newcross SE14, London, UK","IB","6x6 roof damage",51.4736737,-0.0573427,"Southwark"
"430",1940-09-07 18:30:00,"146 Jeringham Road Newcross, SE14, London, UK","IB","3x2 roof damage",51.4690564,-0.0432227016297255,"Lewisham"
"431",1940-09-07 18:30:00,"24 Lewisham Way, Lewisham SE, London, UK","IB","house of 14 rooms, most of roof and top floor damaged",51.4752504,-0.0355027,"Lewisham"
"432",1940-09-07 18:30:00,"123 St. Asaph's Rpad, Brokeley, SE4, London, UK","IB","IB unginited, 2x2 roof damage",51.513263,-0.089878,"City of London"
"433",1940-09-07 18:30:00,"87 Foxberry Road, Brockley, SE4, London, UK","IB","Middle room damaged",51.4618139,-0.0374211,"Lewisham"
"434",1940-09-07 18:30:00,"8 Sevenoaks Road Crofton Park, SE4, London, UK","IB","Front room on 1st floor severely damaged",51.45267185,-0.0378372107115657,"Lewisham"
"435",1940-09-07 18:30:00,"2-8 Odessa Street, Rotherhithe Street Se16, London, UK","IB","Timber Yard, Granary, Offices and Lighterman all slightly damaged",51.4982944,-0.0340238,"Southwark"
"436",1940-09-07 18:30:00,"South Wharf River, Ambulance Service, Rotherhithe Street, SE16, London, UK","IB","Range of buildings between 1-3 floors, 400x400, contents and roof severely damaged",51.5068875,-0.0418882,"Southwark"
"437",1940-09-07 18:30:00,"2-119 Elgar Street, Rotherhithe, SE16, London, UK","EB","Many buildings in this thoroughfare damage",51.4980133,-0.0351702,"Southwark"
"438",1940-09-07 18:30:00,"591, Commercial Road, Stepney E1, London, UK","EB","Zenith Motor Works-A building of 2 floors and contents severely damaged.",51.512813,-0.041619,"Tower Hamlets"
"439",1940-09-07 18:30:00,"91 Shandy Street, Stepney, E1, London, UK","IB","House of 6 rooms and contents severely damaged",51.5207096,-0.0413102,"Tower Hamlets"
"440",1940-09-07 18:30:00,"83 Ernest Street, Stepney, E1, London, UK","IB","House of 8 rooms and contents severely damaged",51.5212984,-0.0433379,"Tower Hamlets"
"441",1940-09-07 18:30:00,"61 Ernest Street, Stepney E1, London, UK","IB","House of 8 rooms and contents severely damaged. Roof off, front toom on 1st floor damaged",51.5212984,-0.0433379,"Tower Hamlets"
"442",1940-09-07 18:30:00,"15 Shandy Street, E1, London, UK","IB","House of 6 rooms and contents severely damaged. Front room on 1st floor severely damaged",51.5209527,-0.043112,"Tower Hamlets"
"443",1940-09-07 18:30:00,"112 Harford Street, Stepney E1, London, UK","IB","House of 6 rooms and contents severely damaged",51.5199963,-0.0388605,"Tower Hamlets"
"444",1940-09-07 18:30:00,"66 Shandy Street, Stepney E1, London, UK","IB","House of 6 rooms and contents severely damaged. Top floor and contents damaged",51.5202914,-0.0428014,"Tower Hamlets"
"445",1940-09-07 18:30:00,"91 Stebondale Street, Cubbitt Town, E14, London, UK","IB","house and shop and contents",51.4883121,-0.0094641,"Tower Hamlets"
"446",1940-09-07 18:30:00,"St. John's  Church, Woodman Street, North Woolwich, E16, London, UK","IB","Ecclesiastical Commissioners, One floor 100x 60, used as church and contents severely damaged.",51.5106411,-0.205744267224448,"Kensington and Chelsea"
"447",1940-09-07 18:31:00,"116 Erlanger Road, Newcross, SE14, London, UK","IB","2x1 roof damage",51.46997255,-0.0465140447627185,"Lewisham"
"448",1940-09-07 18:31:00,"102 Erlanger Road, Newcross, SE14, London, UK","IB","House of 6 rooms, front rooms and contents severely damaged",51.4704566,-0.0466897333513961,"Lewisham"
"449",1940-09-07 18:31:00,"4 Brandham Road, Lee SE12, London, UK","EB","Private house damaged 12 rooms",51.4577601,0.00680810890070662,"Lewisham"
"450",1940-09-07 18:31:00,"2 Brandham Road Lee SE12, London, UK","EB","Building and contents 80x40 used a garage severely damaged",51.45810085,0.00642080942005306,"Lewisham"
"451",1940-09-07 18:31:00,"1 Brandham Road Lee SE12, London, UK","EB","house of 13 rooms damaged",51.4406824,0.0192947671965318,"Lewisham"
"452",1940-09-07 18:32:00,"Dowanhill Road, Catford, SE6, London, UK",NA,"2x2 roadway damage",51.4399296,-0.0019629,"Lewisham"
"453",1940-09-07 18:32:00,"Berger Hall Empson Street, Bromley-by-Bow E3, London, UK",NA,"Alarm caused by people trapped in air raid shelter, first aid redered by the Brigade, all persons accounted for",51.5221616,-0.0131847,"Tower Hamlets"
"454",1940-09-07 18:32:00,"31, 33, and 35, Venue St, Poplar E14 , London, UK","EB","Three private houses of 6 rooms each and contents severely damaged",51.5111559,0.0056533,"Tower Hamlets"
"455",1940-09-07 18:32:00,"Venue Street, Tower Hamlets, London E14 6QA, London, UK","EB","23 buildings damaged. 6 persons severely injured",51.5190167,-0.0120864,"Tower Hamlets"
"456",1940-09-07 18:33:00,"7 Birkhall Road, Catford SE6, London, UK",NA,"unexploded bomb on enclosed ground at rear of premises",51.4379034,-0.0040598,"Lewisham"
"457",1940-09-07 18:33:00,"403-405 East India Dock Road, Poplar E14, London, UK",NA,"2 private houses of 8 rooms and contents severely damaged. Collapsed and fallen down.",51.5115541,-0.0255516,"Tower Hamlets"
"458",1940-09-07 18:34:00,"Shandy Street, E.1, London, UK","IB","1 x1 ft of tarmac destroyed",51.5206535,-0.0415938,"Tower Hamlets"
"459",1940-09-07 18:35:00,"Blackheath SE10, London, UK","IB","20x10 feet of GRASS burned on heath",53.22592315,-2.28429145,NA
"460",1940-09-07 18:35:00,"Blackheath Hill, Blackheath Se10, London, UK","EB","South Met Gas Company: Gas destroyed and carriage way",51.472443,-0.005769,"Greenwich"
"461",1940-09-07 18:36:00,"7 Braywood Road, Eltham SE9, London, UK",NA,"explosive bomb (unexploded) Yard damged.",51.4581191,0.0828413,"Bexley"
"462",1940-09-07 18:36:00,"Mile End RD E, London, UK","IB","2x2 ft of roof dmamged",51.5230646,-0.0400236,"Tower Hamlets"
"463",1940-09-07 18:36:00,"Narrow Street, Stepney E1, London, UK","IB","A building of 4 floors about 80x 60 ft of which 1/2 of and contents severely damaged",51.5096479,-0.0368642,"Tower Hamlets"
"464",1940-09-07 18:37:00,"Ormside Street, Camberwell, SE15, London, UK","IB","Building of 3 floors 60x60, owned by Durling, West and Durling Ltd. Severley damaged.",51.483124,-0.055626,"Southwark"
"465",1940-09-07 18:37:00,"65 Drakefell Road, Brokeley, SE4, London, UK","IB","Front room on 1st floor severely damaged",51.4660362,-0.0424949,"Lewisham"
"466",1940-09-07 18:37:00,"Sheridan Street Stepney E1, London, UK",NA,"Minor fire and explosion damage",51.513263,-0.089878,"City of London"
"467",1940-09-07 18:39:00,"150 Erlanger Road, Newcross, SE14, London, UK","IB","2x2 roof damage",51.46918505,-0.046179365591966,"Lewisham"
"468",1940-09-07 18:39:00,"Shadwell Lane, Stepney E1, London, UK","IB","Part of top floor of flats Nos. 51-75 and 70-75, severely damaged",51.513263,-0.089878,"City of London"
"469",1940-09-07 18:40:00,"63 Cressingham Road, Lewisham, SE13, London, UK","IB","Private house damaged",51.4646538,-0.0075087,"Lewisham"
"470",1940-09-07 18:40:00,"64 Wickham Road, Brockley, SE4, London, UK","IB","Back room on 1st floor and contents damaged",51.46447595,-0.0321679081937364,"Lewisham"
"471",1940-09-07 18:40:00,"24 Oldfield Road, Rotherhithe, SE16, London, UK","EB","6 houses damaged and fallen down",51.5588248,-0.0793147,"Hackney"
"472",1940-09-07 18:40:00,"13 Pedro St, Clapton E5, London, UK","IB","6 x 4ft of roof and joisting damaged in scullery on ground floor",51.5565748,-0.0407486,"Hackney"
"473",1940-09-07 18:40:00,"St Leonard's Avenue, Poplar E14, London, UK","IB","A number of IB bombs burned out on road",51.513263,-0.089878,"City of London"
"474",1940-09-07 18:40:00,"Millwall Recreation Ground, E14, London, UK","EB","30x30 asphalt pavement damage",NA,NA,NA
"475",1940-09-07 18:40:00,"Globe Rope Works, East Ferry Road, , Millwall E14, London, UK","EB","200x30 building with machiner room and contents damaged",51.4944229,-0.0143504,"Tower Hamlets"
"476",1940-09-07 18:40:00,"A Yard Millwall Docks, E14, London, UK","EB.and.IB","Port of London Authority. No, 4, 4a and 5 warehouses, each of two floors and 400x60 damaged with contents.",51.5869681,-0.0415525277464496,"Waltham Forest"
"477",1940-09-07 18:41:00,"Cantrell Road, E3, London, UK","IB","1 x 1 ft of tarmac slightly damaged",51.52085115,-0.0276547761561904,"Tower Hamlets"
"478",1940-09-07 18:42:00,"Yeoman Street, Deptford SE8, London, UK","COB","20x10 roadways damage",51.513263,-0.089878,"City of London"
"479",1940-09-07 18:43:00,"31 Preston Street, Bethnal Green, E2, London, UK","IB","Front room on 1st floor and contents damaged, roof part off (4x3)",51.526864,-0.058509,"Tower Hamlets"
"480",1940-09-07 18:44:00,"Vesey Street, Poplar E14, London, UK","IB","A number of IB bombs burned out on road",51.5120509,-0.0144113,"Tower Hamlets"
"481",1940-09-07 18:45:00,"Brunswick Square, WC1, London, UK","EB","back room of 5th floor and contents slihghtly damaged 2x1 roof damage",51.5239066,-0.1224916,"Camden"
"482",1940-09-07 18:45:00,"Brunswick Square, WC1, London, UK","EB","2x2 roadway damage and some buildings lightly damaged",51.5239066,-0.1224916,"Camden"
"483",1940-09-07 18:45:00,"Tamar Street, Charlton, SE7, London, UK","EB","30x20 of roadway and paving severely damaged",51.4923624,0.0452724,"Greenwich"
"484",1940-09-07 18:45:00,"Holbeach Road Catford, SE6, London, UK",NA,"2x2 pavement damage",51.513263,-0.089878,"City of London"
"485",1940-09-07 18:45:00,"Catford Greyhound Staium, Catford SE6, London, UK",NA,"Falling Shrapnel",NA,NA,NA
"486",1940-09-07 18:45:00,"Mountsfeild park, Catford SE6, London, UK",NA,"unexplodedbomb on enclosed ground at rear of premises",51.448703,-0.029789,"Lewisham"
"487",1940-09-07 18:45:00,"7, King John Street, Poplar, Greater London, E1 3, London, UK","IB","Water Closet and contents slightly damaged. 2 x 1 ft of roof by breakage in yard",51.5175447,-0.0438432,"Tower Hamlets"
"488",1940-09-07 18:46:00,"276 Newcros Road, Newcross SE14, London, UK","IB","2x2 damage",51.4901146,-0.0425724,"Southwark"
"489",1940-09-07 18:46:00,"131, St Leonards Street, Leonards RD, Poplar, E14, London, UK","IB","Pawnbrokers- Shop and house of 7 rooms about 5/6 and contents severely damaged.",51.396069,-0.309199,"Kingston upon Thames"
"490",1940-09-07 18:47:00,"Deptford Church Street, SE8, London, UK","IB","Southern Rail. Railway arch damaged",51.513263,-0.089878,"City of London"
"491",1940-09-07 18:47:00,"Emmott Street E1, London, UK","IB","1 x 1 ft of tarmac damaged",51.513263,-0.089878,"City of London"
"492",1940-09-07 18:47:00,"Molassine Wharf, Greenwich, SE, London, UK","Unknow.enemy.action","Tow dumb barges, damaged and sunk",51.509648,-0.099076,NA
"493",1940-09-07 18:47:00,"Molassine Wharf, Greenwich, SE, London, UK","Unknow.enemy.action","Two dumb barges damaged",51.509648,-0.099076,NA
"494",1940-09-07 18:47:00,"A Yard Millwall Docks, E14, London, UK","EB","Port of London Authority. ""A"" Shed, awarehouse of two floors 400x60 damaged",51.5869681,-0.0415525277464496,"Waltham Forest"
"495",1940-09-07 18:50:00,"Newcross Gate Railway Station, Newcross, SE14, London, UK","EB","Owned by Southern Railway, booking hall, platform and a building damaged by explosion",51.438015,-0.048947,"Lewisham"
"496",1940-09-07 18:50:00,"1-6 Old Field Road, Rotherine, Se16, London, UK","EB","6 houses damaged",NA,NA,NA
"497",1940-09-07 18:50:00,"103 Skidmore Street, Stepney E1, London, UK","IB","House of 6 rooms. Back room and contents, severely damaged.",51.516152,-0.046262,"Tower Hamlets"
"498",1940-09-07 18:50:00,"30 East Ferry Road, Cubitt Town, E14, London, UK","IB","Shop and house of 6 rooms, and contents damaged",51.4986137,-0.010701,"Tower Hamlets"
"499",1940-09-07 18:51:00,"Grace Street, Bromley, E3, London, UK","IB","Starch Manufacturers. Range of buildings of 1-2 floors, covering 2 acres. 2/3 severely damaged",51.5262895,-0.0135086,"Tower Hamlets"
"500",1940-09-07 18:51:00,"14 Talwin Street, Bromley E3, London, UK","IB","Private house of 8 rooms severely damaged, part of roof off",51.5255908,-0.0126333,"Tower Hamlets"
"501",1940-09-07 18:51:00,"16 Talwin Street, Bromley, E3, London, UK","IB","Private house of 8 rooms severely damaged, part of roof off",51.5255908,-0.0126333,"Tower Hamlets"
"502",1940-09-07 18:52:00,"63 Stebondale Street, Cubitt Town, E14, London, UK","IB","Front room on 1st floor and contents damaged.",51.4883121,-0.0094641,"Tower Hamlets"
"503",1940-09-07 18:52:00,"Glengall Grove, E14, London, UK","EB","60x60 of roadway damaged",51.4952744,-0.010925,"Tower Hamlets"
"504",1940-09-07 18:52:00,"174 Glengall grove, Cubitt Town, E14, London, UK","EB","Off licence. Building of 3 floord 60x20 , used as dwelling and store, contents severly damaged.",51.4952744,-0.010925,"Tower Hamlets"
"505",1940-09-07 18:52:00,"172 Glengall Grove Cubitt Town, E14, London, UK","EB","Tobacconist, Shop and house of 6 rooms, damaged.",51.4952744,-0.010925,"Tower Hamlets"
"506",1940-09-07 18:55:00,"Alfred Street, Bow, E3, London, UK","IB","Back room on 2nd floor and contents slightly damaged. Roof by breakage",51.5284532,-0.02631,"Tower Hamlets"
"507",1940-09-07 18:55:00,"26 Ely Terrace, Stepney E1, London, UK","IB","Front room on 1st floor and contents damaged, roof part off",51.516152,-0.046262,"Tower Hamlets"
"508",1940-09-07 18:56:00,"Heybridge Avenue, SW16, London, UK","IB","10x10 grass damage",51.419074,-0.122546,"Lambeth"
"509",1940-09-07 18:57:00,"176, Glengall Grove, Cubitt Town, E14, London, UK","EB","6 houses, 6 rooms each damaged.",51.4952744,-0.010925,"Tower Hamlets"
"510",1940-09-07 18:57:00,"171 Stebondale Street, Cubitt Town, E14, London, UK","EB","8 houses 6 rooms each and contents damaged",51.4883121,-0.0094641,"Tower Hamlets"
"511",1940-09-07 18:57:00,"124 Stebondale Street, Cubitt Town, E14, London, UK","EB","11 houses of 6 rooms ad contents damaged",51.4883121,-0.0094641,"Tower Hamlets"
"512",1940-09-07 18:58:00,"Purcell Place, Hackney, E9, London, UK","IB","Front room on first floor and contents slightly damaged. 4x 2ft of roof by breakage",51.513263,-0.089878,"City of London"
"513",1940-09-07 18:59:00,"Commercial RD, E, London, UK","IB","2x 1 ft of paving damaged",51.5153402,-0.0703093,"Tower Hamlets"
"514",1940-09-07 19:00:00,"171, St. Asaph's Road, Brokerly SE4, London, UK","IB","6x4 roof damage",51.513263,-0.089878,"City of London"
"515",1940-09-07 19:00:00,"28 Harcourt Road, Brockley, SE4, London, UK","IB","Back room on 1st floor and contents damaged",51.5330166,0.0113001149038457,"Newham"
"516",1940-09-07 19:00:00,"Amesbury Avenue, Streatham, SW16, London, UK","IB","Anti- aircraft shell unexploded. And 2x2 roadway damaged",51.4383833,-0.1252045,"Lambeth"
"517",1940-09-07 19:00:00,"Bancroft Rd, Tower Hamlets, London E1, London, UK","IB","2 x 1ft of tarmac damaged",51.5257197,-0.0478664,"Tower Hamlets"
"518",1940-09-07 19:00:00,"86 Ernest Street, Stepney E1, London, UK","IB","Back room on 2nd floor and contents damaged. 3x4 room damaged.",51.5212984,-0.0433379,"Tower Hamlets"
"519",1940-09-07 19:00:00,"Pier Road, North Woolwich, E16, London, UK","EB.and.IB","London and North Eastern railway. 60x20x10 stack of coal 6 railway trucks and content severely damaged",51.4984784,0.0597035,"Newham"
"520",1940-09-07 19:01:00,"Wearside Road, Lewisam, SE13, London, UK","IB","IB on enclosed ground",51.457977,-0.016115,"Lewisham"
"521",1940-09-07 19:01:00,"Furze Street E3, London, UK","IB","2x1 ft of tarmac damaged",51.5182829,-0.021832,"Tower Hamlets"
"522",1940-09-07 19:03:00,"Eaton Place E9, London, UK","IB","Front room on 1st floor and contents damaged by fire. 4x2 ft of roof by breakage, ceiling and contents under by water.",51.513263,-0.089878,"City of London"
"523",1940-09-07 19:05:00,"Silk Mills Path, Lewisham SE13, London, UK","EB","Broadway Press, Ltd. Printers. Machine room, storage, roof damaged 200x150",51.465896,-0.012456,"Lewisham"
"524",1940-09-07 19:05:00,"86 Ernest Street, Stepney E1, London, UK","IB","Front room on 1st floor and contents damaged, roof part off (4x3)",51.5212984,-0.0433379,"Tower Hamlets"
"525",1940-09-07 19:06:00,"60 Buckhill Road, Eltham, SE9, London, UK",NA,"explosive bomb (unexploded) Yard damged.",51.451184,0.050318,"Greenwich"
"526",1940-09-07 19:06:00,"Canadian Produce Warehouse, Swedish Yard, Surrey, Commercial Docks, SE16, London, UK","COB","Port of London Authority. 300x100 six floor building. Station Officer H. W. Knightand one fireman killed by high explosive bomb the next day while attending to this fire.",51.499399,-0.127391048333331,"Westminster"
"527",1940-09-07 19:07:00,"55, Glengarnock Avenue, Cubitt town E14, London, UK","IB","A house of 6 rooms, upper part and contents severely damaged",51.4892166,-0.0081776,"Tower Hamlets"
"528",1940-09-07 19:07:00,"45, Glengarnock Avenue, Cubitt town E14, London, UK","IB","A house of 6 rooms, upper part and contents severely damaged",51.4892166,-0.0081776,"Tower Hamlets"
"529",1940-09-07 19:07:00,"34, Glengarnock Avenue, Cubbit town E14, London, UK","IB","A timber shed building about 12x 10 feet  used as store and contents severely damaged",51.4892166,-0.0081776,"Tower Hamlets"
"530",1940-09-07 19:07:00,"1 Pennyfields, London, UK
Poplar, London E14 8, London, UK","EB","Port of London Authority-About 60x40 ft of paving and some railway track damaged by explosion on dockside",51.509711,-0.0249714785933071,"Tower Hamlets"
"531",1940-09-07 19:08:00,"Manchester Road, Cubitt Town E14, London, UK","IB","Builders and Contractors- Some stock in yard and motor lorry damaged",51.5008976,-0.0088069,"Tower Hamlets"
"532",1940-09-07 19:10:00,"Hornlane East, Greenwich SE10, London, UK","EB","Southern rail. 30 ft roadway damaged",51.47625705,-0.0185120300855278,"Greenwich"
"533",1940-09-07 19:10:00,"Commercial RD, E, London, UK","IB","Zenith Garage-  Range of buildings of one and two floors about 90x 70ft, used as garage, offices and store. About 1/2 of contents severely damaged. Most part of roofs off.",51.5153402,-0.0703093,"Tower Hamlets"
"534",1940-09-07 19:10:00,"Glenarm Road, Clapton, E5, London, UK","EB","Roadway and 4 private houses damaged",51.5529461,-0.0470179,"Hackney"
"535",1940-09-07 19:11:00,"Butcher Row. Cable Street- Stepney E1, London, UK","EB","Cider factory-A building of one floor used as workshops, offices and stores severely damaged.",51.513263,-0.089878,"City of London"
"536",1940-09-07 19:13:00,"Belford Grove, Woolwich, SE18, London, UK",NA,"Suspected unexploded bomb",51.48817,0.060545,"Greenwich"
"537",1940-09-07 19:13:00,"Parry Place Woolwich Se18, London, UK",NA,"Suspected unexploded bomb",51.49049,0.072048,"Greenwich"
"538",1940-09-07 19:13:00,"Burrage Road SE18, London, UK",NA,"Suspected unexploded bomb",51.487284,0.073562,"Greenwich"
"539",1940-09-07 19:13:00,"Corborn Street, London, E3 2AB, London, UK","IB","2x1 paving damage",51.5811716,-0.0322047,"Waltham Forest"
"540",1940-09-07 19:14:00,"50 Ordnance Crescent, Greenwich SE10, London, UK","IB","Back room on 1st floor and contents damaged",51.5009845,0.0013941,"Greenwich"
"541",1940-09-07 19:15:00,"Canada yard, Surrey, Commercial Docks, SE16, London, UK","COB",""""" Timber yard 1 1/2 acre damaged.",51.499399,-0.127391048333331,"Westminster"
"542",1940-09-07 19:16:00,"40 and 42 Blackthorn Street Bow, E3, London, UK","EB","2 private houses damaged",51.5206879,-0.0199328,"Tower Hamlets"
"543",1940-09-07 19:17:00,"Folly House Barge Roads, Blackwall Reach, E, London, UK","IB","Seven dumb barges and contents severely damaged",51.4950847,-0.00570910722826442,"Tower Hamlets"
"544",1940-09-07 19:19:00,"Barnes Street. Redmond Lane. Old Church Road. Head Street. Caroline Street- Stepney E1, London, UK",NA,"Minor fire and explosion damage",51.513263,-0.089878,"City of London"
"545",1940-09-07 19:20:00,"Princes Rise, Lewisham, SE13, London, UK","IB","3x2 carriage way damaged",51.467981,-0.01021,"Lewisham"
"546",1940-09-07 19:20:00,"Lewisham Hill, Lewisham SE13, London, UK","EB","South Met Gas Company: Gas destroyed and carriage way (20x20)",51.467444,-0.009275,"Lewisham"
"547",1940-09-07 19:20:00,"Durham Row, Tower Hamlets London E1 ONP, London, UK","IB","4x3 roof damage",51.5173916,-0.0402804,"Tower Hamlets"
"548",1940-09-07 19:25:00,"19 Boyne Road, Lewisham, SE13, London, UK",NA,"2x2 roadway damage",51.4643426,-0.0065891,"Lewisham"
"549",1940-09-07 19:25:00,"Upper Quebec Yard, Surrey, Se16, London, UK","COB","Timber storage covering 2 acres, damaged.",51.41505,-0.0927,"Croydon"
"550",1940-09-07 19:25:00,"102 West Ferry Road, Millwall E14, London, UK","EB.and.IB","Wharfingers-A range of buildings of 1, 2 and 3 floors covering an area of about 650x 450 feet used as machine rooms, workshops, sorting rooms, offices dwelling and store. About 2/3 and contents, some stock in yard, including 3 motor lorries severely damaged.",51.490135,-0.020035,"Tower Hamlets"
"551",1940-09-07 19:25:00,"102 West Ferry Road, Millwall E14, London, UK","EB.and.IB","General Merchants-A range of buildings of 1, 2 and 3 floors covering an area of about 650x 450 feet used as machine rooms, workshops, sorting rooms, offices dwelling and store. About 2/3 and contents, some stock in yard, including 3 motor lorries severely damaged.",51.490135,-0.020035,"Tower Hamlets"
"552",1940-09-07 19:25:00,"104 West Ferry Road, Millwall E14, London, UK","EB.and.IB","Millwall Ingot Metals Ltd-A range of buildings of 1, 2 and 3 floors covering an area of about 650x 450 feet used as machine rooms, workshops, sorting rooms, offices dwelling and store. About 2/3 and contents, some stock in yard, including 3 motor lorries severely damaged.",51.490135,-0.020035,"Tower Hamlets"
"553",1940-09-07 19:25:00,"Glengall Wharf, Millwall E14, London, UK","EB.and.IB","Thames Oil Wharf-A range of buildings of 1, 2 and 3 floors covering an area of about 650x 450 feet used as machine rooms, workshops, sorting rooms, offices dwelling and store. About 2/3 and contents, some stock in yard, including 3 motor lorries severely damaged.",51.48239465,-0.0727723523404443,"Southwark"
"554",1940-09-07 19:25:00,"Union Road, Millwall E14, London, UK","EB.and.IB","Beer Retailer-A range of buildings of 1, 2 and 3 floors covering an area of about 650x 450 feet used as machine rooms, workshops, sorting rooms, offices dwelling and store. About 2/3 and contents, some stock in yard, including 3 motor lorries severely damaged.",51.4692589,-0.1308578,"Lambeth"
"555",1940-09-07 19:25:00,"Lying at Lollar Wharf, London, UK","EB.and.IB","About 6 dumb barges and contents severely damaged",51.411788,-0.307989,"Kingston upon Thames"
"556",1940-09-07 19:30:00,"Hutchings Wharf, Hutchings street, West Ferry Road, Millwall E14, London, UK","IB","Walkers Wharfage and Haulage Co.-A building of one floor about 60x 40 ft used as store and contents and come stock in yard slightly damaged.",51.43001455,-0.323323672685084,"Richmond upon Thames"
"557",1940-09-07 19:30:00,"Pelican Passage, Cambridge Heath Road, E1, London, UK","EB","Cambridge Warehouse Co. (General Merchants)150x100 four floor building used as stores. Ground and 1st severely damaged.",51.5343252,-0.057293,"Tower Hamlets"
"558",1940-09-07 19:35:00,"Whitman Road, Bow E3, London, UK","IB","2x1 paving damage",51.5244436,-0.0369173,"Tower Hamlets"
"559",1940-09-07 19:36:00,"Walker Street, E14, London, UK","IB","2x1 paving damage",51.513263,-0.089878,"City of London"
"560",1940-09-07 19:43:00,"3 Orchard Place, Blackheath, SE3, London, UK","IB","2x1 roof damage",51.3966067,0.115331281097562,"Bromley"
"561",1940-09-07 19:45:00,"Walter Terrace, Poplar, Greater London, E1 , London, UK","IB","Back room on 1st floor damaged.",51.5157822,-0.0437493,"Tower Hamlets"
"562",1940-09-07 19:46:00,"198 Lewisham High Street, Lewisham, SE13, London, UK",NA,"Electric cables burned in debris",51.459957,-0.0114171,"Lewisham"
"563",1940-09-07 19:47:00,"Canada yard, Surrey, Commercial Docks, SE16, London, UK","IB","Range of sheds with timbers covering 2 acres are damaged and falled down.",51.499399,-0.127391048333331,"Westminster"
"564",1940-09-07 19:51:00,"Otis Street, Bromley, E3, London, UK","IB","Gas and water leakage in street",51.5271246,-0.0100389,"Tower Hamlets"
"565",1940-09-07 19:53:00,"Trinity Wharf, Rotherhithe Street S.E.16, London, UK","IB","5 dumb barges unladen damaged",51.49489385,0.044305657823943,"Greenwich"
